City_ID,City,Lat,Lng,Max Temp,Humidity,Cloudiness,Wind Speed,Country,Date
0,candido mota,-22.7464,-50.3869,19.51,93,95,3.28,BR,1702266663
1,lihue,21.9789,-159.3672,24.77,84,75,4.12,US,1702266530
2,bubaque,11.2833,-15.8333,28.09,59,100,4.57,GW,1702266663
3,ilulissat,69.2167,-51.1,-1.99,64,100,9.26,GL,1702266663
4,whitehorse,60.7161,-135.0538,-10.66,84,100,8.23,CA,1702266664
5,cartagena,10.3997,-75.5144,26.79,89,20,1.54,CO,1702266664
6,albany,42.6001,-73.9662,6.32,91,100,0.89,US,1702266635
7,charters towers,-20.1,146.2667,27.57,52,100,4.3,AU,1702266503
8,wailua homesteads,22.0669,-159.378,24.44,84,75,4.12,US,1702266665
9,longyearbyen,78.2186,15.6401,-2.09,64,20,3.6,SJ,1702266665
10,atafu village,-8.5421,-172.5159,28.54,78,100,6.35,TK,1702266665
11,hornell,42.3279,-77.6611,3.0,97,100,3.38,US,1702266666
12,susuman,62.7833,148.1667,-21.68,96,96,2.24,RU,1702266666
13,anadyr,64.75,177.4833,-26.67,82,75,4.0,RU,1702266666
14,kailua-kona,19.6406,-155.9956,27.0,77,20,2.57,US,1702266379
15,sitka,57.0531,-135.33,3.94,70,75,3.6,US,1702266666
16,edinburgh of the seven seas,-37.0676,-12.3116,13.64,71,98,7.88,SH,1702266666
17,zhezqazghan,47.7833,67.7667,-24.68,77,20,5.0,KZ,1702266667
18,adamstown,-25.066,-130.1015,21.31,57,0,2.84,PN,1702266667
19,conde,-7.2597,-34.9075,24.7,88,20,1.03,BR,1702266667
20,margaret river,-33.95,115.0667,25.1,35,0,3.23,AU,1702266667
21,yellowknife,62.456,-114.3525,-12.55,97,75,8.75,CA,1702266668
22,san juan de miraflores,-12.1629,-76.9635,20.65,80,93,2.91,PE,1702266668
23,crane,31.3974,-102.3501,8.19,26,0,2.88,US,1702266668
24,puerto ayora,-0.7393,-90.3518,23.89,88,30,3.48,EC,1702266668
25,thompson,55.7435,-97.8558,-14.91,85,100,1.54,CA,1702266669
26,citrus springs,28.9975,-82.4707,18.97,80,100,3.6,US,1702266669
27,bethel,41.3712,-73.414,17.05,82,100,7.72,US,1702266558
28,mandi,31.7167,76.9167,13.76,13,100,0.74,IN,1702266669
29,annau,37.8876,58.516,11.72,58,75,5.14,TM,1702266669
30,kavieng,-2.5744,150.7967,28.34,78,62,4.13,PG,1702266669
31,ribeira grande,38.5167,-28.7,17.1,74,80,8.94,PT,1702266670
32,grytviken,-54.2811,-36.5092,5.39,97,100,6.72,GS,1702266670
33,iskateley,67.6803,53.1512,-22.77,91,100,4.92,RU,1702266670
34,puerto natales,-51.7236,-72.4875,5.01,89,54,1.61,CL,1702266670
35,traiguen,-38.25,-72.6833,8.14,97,53,1.14,CL,1702266376
36,lebu,-37.6167,-73.65,12.24,92,67,6.02,CL,1702266393
37,san buenaventura,27.0833,-101.5333,11.15,33,0,0.49,MX,1702266671
38,sinjar,36.3209,41.8754,11.03,80,0,3.51,IQ,1702266671
39,faget,45.85,22.1833,2.85,98,100,0.93,RO,1702266672
40,college,64.8569,-147.8028,-16.17,77,100,4.12,US,1702266672
41,vilyuchinsk,52.9306,158.4028,0.15,87,100,3.63,RU,1702266672
42,san luis de la loma,17.2706,-100.8939,26.52,73,100,1.63,MX,1702266673
43,port-aux-francais,-49.35,70.2167,4.46,79,81,8.96,TF,1702266673
44,hawaiian paradise park,19.5933,-154.9731,23.91,96,75,0.0,US,1702266459
45,pathein,16.7833,94.7333,28.7,59,6,2.48,MM,1702266673
46,bilibino,68.0546,166.4372,-25.4,98,52,1.98,RU,1702266674
47,saint-pierre,-21.3393,55.4781,28.65,65,0,1.54,RE,1702266674
48,west island,-12.1568,96.8225,28.99,70,40,6.17,CC,1702266674
49,cabo san lucas,22.8909,-109.9124,24.31,63,0,3.09,MX,1702266029
50,puerto baquerizo moreno,-0.9,-89.6,23.73,88,15,4.48,EC,1702266675
51,iqaluit,63.7506,-68.5145,-5.15,73,100,10.8,CA,1702266675
52,papatowai,-46.5619,169.4708,16.77,46,86,6.0,NZ,1702266675
53,constantia,44.1833,28.65,-0.62,80,93,3.69,RO,1702266675
54,waitangi,-43.9535,-176.5597,14.9,63,0,2.24,NZ,1702266676
55,punta arenas,-53.15,-70.9167,5.06,70,0,1.54,CL,1702266676
56,invercargill,-46.4,168.35,15.21,52,73,7.35,NZ,1702266642
57,saipan,15.1355,145.701,30.39,70,20,5.66,MP,1702266676
58,bikenibeu village,1.3673,173.1241,27.98,83,75,2.06,KI,1702266676
59,badger,64.8,-147.5333,-16.22,75,75,4.12,US,1702266677
60,bonthe,7.5264,-12.505,26.04,82,40,1.62,SL,1702266677
61,grand falls-windsor,48.9332,-55.6649,-0.83,90,99,5.37,CA,1702266677
62,sao felix do xingu,-6.6447,-51.995,23.43,94,100,1.03,BR,1702266677
63,klyuchi,52.2667,79.1667,-21.63,86,18,3.49,RU,1702266677
64,mount pearl,47.5166,-52.7813,0.47,95,75,4.12,CA,1702266585
65,leua,48.2156,18.6071,3.05,100,100,2.13,SK,1702266678
66,tolanaro,-25.0319,46.9987,26.04,89,20,5.14,MG,1702266678
67,monrovia,6.3005,-10.7969,24.87,83,70,2.39,LR,1702266533
68,aasiaat,68.7098,-52.8699,-2.68,87,100,5.79,GL,1702266679
69,ust-tsilma,65.441,52.1498,-21.88,93,100,3.58,RU,1702266679
70,ancud,-41.8697,-73.8203,11.23,91,100,0.75,CL,1702266407
71,ranau,5.9538,116.6641,28.07,68,100,1.29,MY,1702266679
72,avarua,-21.2078,-159.775,26.03,78,100,11.32,CK,1702266680
73,arraial do cabo,-22.9661,-42.0278,22.68,81,100,6.3,BR,1702266680
74,imperatriz,-5.5264,-47.4917,23.53,95,94,1.27,BR,1702266681
75,hampton bays,40.869,-72.5176,15.5,96,100,14.75,US,1702266681
76,jamestown,42.097,-79.2353,3.08,94,100,3.6,US,1702266584
77,nova sintra,14.8667,-24.7167,22.68,73,80,5.52,CV,1702266681
78,gaigeturi,33.4644,126.3183,20.03,73,75,1.54,KR,1702266682
79,talnakh,69.4865,88.3972,-27.11,98,100,4.6,RU,1702266682
80,utrik,11.2278,169.8474,27.18,78,88,8.73,MH,1702266682
81,puerto cabezas,14.0351,-83.3888,24.86,93,48,3.41,NI,1702266683
82,dass,10.0,9.5167,16.14,31,1,2.11,NG,1702266683
83,richards bay,-28.783,32.0377,19.5,94,100,3.33,ZA,1702266685
84,olonkinbyen,70.9221,-8.7187,-2.1,65,100,6.12,SJ,1702266685
85,remire-montjoly,4.9167,-52.2667,26.02,94,20,0.0,GF,1702266685
86,mejit,10.2753,170.8646,27.28,80,100,8.87,MH,1702266685
87,pajapan,18.25,-94.7,18.58,90,100,6.38,MX,1702266686
88,ust-nera,64.5667,143.2,-22.43,99,100,3.51,RU,1702266686
89,batang,-6.4846,110.7083,31.09,58,94,2.41,ID,1702266686
90,veraval,20.9,70.3667,24.58,44,6,3.39,IN,1702266686
91,westport,41.1415,-73.3579,16.92,93,100,9.77,US,1702266687
92,hanzhong,33.0728,107.0303,10.42,66,77,1.73,CN,1702266688
93,kaoma,-14.7833,24.8,18.86,97,100,1.76,ZM,1702266688
94,mar del plata,-38.0023,-57.5575,20.01,77,0,3.6,AR,1702266688
95,urzhum,57.1141,49.9996,-24.11,95,100,3.72,RU,1702266688
96,tura,25.5198,90.2201,21.47,49,0,0.37,IN,1702266689
97,khandyga,62.6667,135.6,-32.22,96,100,0.74,RU,1702266689
98,yamada,39.4667,141.95,9.04,51,37,1.35,JP,1702266689
99,bredasdorp,-34.5322,20.0403,14.94,84,3,1.14,ZA,1702266690
100,stanley,54.868,-1.6985,4.29,96,75,3.6,GB,1702266478
101,venado tuerto,-33.7456,-61.9688,18.25,46,0,3.74,AR,1702266690
102,flying fish cove,-10.4217,105.6791,27.82,69,40,4.63,CX,1702266690
103,kodiak,57.79,-152.4072,4.73,93,100,2.57,US,1702266691
104,sandnessjoen,66.0217,12.6316,-7.71,80,29,7.23,NO,1702266691
105,berezovyy,51.6667,135.7,-19.31,50,2,3.25,RU,1702266691
106,hamilton,39.1834,-84.5333,1.43,82,100,5.14,US,1702266472
107,bashmakovo,53.2133,43.0342,-10.88,85,100,6.5,RU,1702266692
108,kasongo-lunda,-6.4667,16.8167,20.8,99,100,0.54,CD,1702266693
109,port macquarie,-31.4333,152.9167,28.27,57,0,7.43,AU,1702266623
110,ylitornio,66.3089,23.6773,-13.28,98,99,1.34,FI,1702266693
111,udachny,66.4167,112.4,-25.66,96,100,5.24,RU,1702266693
112,grantsville,40.5999,-112.4644,1.84,73,98,0.89,US,1702266694
113,chipata,-13.6333,32.65,21.03,74,100,3.79,ZM,1702266694
114,nilgiri,21.4581,86.7669,22.91,29,1,2.44,IN,1702266694
115,ketchikan,55.3422,-131.6461,2.99,86,0,1.54,US,1702266694
116,midland,31.9974,-102.0779,6.38,33,0,2.57,US,1702266695
117,boa vista,2.8197,-60.6733,27.99,65,0,5.14,BR,1702266695
118,lillehammer,61.1146,10.4674,-6.44,97,100,1.25,NO,1702266695
119,blackmans bay,-43.0167,147.3167,19.85,60,7,1.34,AU,1702266695
120,palikir - national government center,6.9248,158.1611,31.47,70,100,5.66,FM,1702266695
121,isafjordur,66.0755,-23.124,-1.91,88,88,4.21,IS,1702266695
122,saint-philippe,-21.3585,55.7679,27.77,85,58,5.39,RE,1702266696
123,tidjikja,18.5564,-11.4271,17.73,24,4,6.53,MR,1702266696
124,praia da vitoria,38.7333,-27.0667,16.53,82,20,5.06,PT,1702266696
125,codrington,-38.2667,141.9667,17.76,77,100,9.14,AU,1702266697
126,smithers,54.7804,-127.1743,-3.82,93,100,1.03,CA,1702266697
127,zouerate,22.7187,-12.4521,16.76,20,0,5.55,MR,1702266697
128,shahba,32.8551,36.629,11.0,71,8,2.67,SY,1702266697
129,portland,45.5234,-122.6762,12.38,95,100,2.24,US,1702266485
130,qaisumah,28.3112,46.1273,14.98,38,0,0.0,SA,1702266697
131,dampit,-8.2116,112.7493,29.32,57,98,2.55,ID,1702266698
132,itupiranga,-5.1347,-49.3267,24.18,95,73,1.31,BR,1702266545
133,constantina,36.365,6.6147,6.67,93,0,0.0,DZ,1702266698
134,amahai,-3.3333,128.9167,31.9,60,99,0.51,ID,1702266698
135,kharp,66.8014,65.8081,-26.69,100,100,1.77,RU,1702266698
136,centralia,46.7162,-122.9543,10.38,98,100,2.06,US,1702266699
137,taksimo,56.3444,114.8794,-29.0,82,36,0.36,RU,1702266699
138,afaahiti,-17.75,-149.2833,28.93,81,65,10.91,PF,1702266699
139,san patricio,28.017,-97.5169,11.02,29,0,1.89,US,1702266699
140,agapovka,53.2973,59.1348,-23.92,90,46,4.83,RU,1702266699
141,whakatane,-37.9585,176.9854,20.43,81,98,2.68,NZ,1702266699
142,colonia,50.9333,6.95,11.36,73,0,5.14,DE,1702266664
143,port elizabeth,-33.918,25.5701,15.73,90,0,1.54,ZA,1702266700
144,tiksi,71.6872,128.8694,-25.42,100,100,2.7,RU,1702266700
145,montlucon,46.3333,2.6,13.17,99,100,1.79,FR,1702266700
146,taunggyi,20.7833,97.0333,21.32,61,15,0.29,MM,1702266700
147,balykshi,47.0667,51.8667,-13.0,56,0,8.0,KZ,1702266700
148,gutao,37.2025,112.1781,-1.93,88,71,0.36,CN,1702266701
149,pontianak,-0.0333,109.3333,30.99,70,75,1.54,ID,1702266701
150,arkhangel'sk,64.5401,40.5433,-15.94,77,75,5.0,RU,1702266701
151,yemetsk,63.4721,41.7941,-13.48,93,100,4.82,RU,1702266701
152,kashin,57.3592,37.6081,-9.27,94,100,5.19,RU,1702266701
153,port lincoln,-34.7333,135.8667,18.59,85,99,6.15,AU,1702266701
154,laojunmiao,39.8333,97.7333,2.93,23,18,1.91,CN,1702266702
155,koulikoro,14.0,-7.75,17.81,25,8,3.94,ML,1702266702
156,arnemuiden,51.5,3.6761,11.99,82,100,16.46,NL,1702266702
157,port shepstone,-30.7414,30.455,19.79,80,100,1.46,ZA,1702266702
158,ushuaia,-54.8,-68.3,5.81,56,0,3.09,AR,1702266702
159,vodice,43.7608,15.7828,5.98,91,100,3.04,HR,1702266702
160,akureyri,65.6835,-18.0878,-10.04,85,0,1.54,IS,1702266702
161,hadibu,12.65,54.0333,24.98,66,15,5.97,YE,1702266703
162,hays,30.0502,-98.0336,7.81,40,0,0.45,US,1702266703
163,bamboo flat,11.7,92.7167,29.05,79,40,4.12,IN,1702266703
164,maragogi,-9.0122,-35.2225,25.24,78,1,3.14,BR,1702266703
165,rawson,-43.3002,-65.1023,21.16,40,0,9.77,AR,1702266647
166,kotri,25.366,68.3122,21.74,48,3,3.46,PK,1702266703
167,hermanus,-34.4187,19.2345,15.59,81,4,2.95,ZA,1702266704
168,kutum,14.2,24.6667,18.89,15,100,4.6,SD,1702266704
169,mont-dore,-22.2833,166.5833,27.99,56,84,8.2,NC,1702266704
170,umba,66.6871,34.3429,-10.92,94,100,4.01,RU,1702266704
171,peniche,39.3558,-9.3811,14.6,93,56,4.56,PT,1702266704
172,carnarvon,-24.8667,113.6333,32.57,26,0,4.48,AU,1702266704
173,uttarkashi,30.7333,78.45,15.5,14,100,1.13,IN,1702266704
174,kingston,17.997,-76.7936,27.53,78,40,7.2,JM,1702266246
175,enewetak,11.3474,162.3373,27.85,76,87,7.9,MH,1702266705
176,port mathurin,-19.6833,63.4167,26.07,76,100,3.12,MU,1702266705
177,hithadhoo,-0.6,73.0833,27.88,76,95,1.81,MV,1702266705
178,ardestan,33.3761,52.3694,11.51,37,100,0.98,IR,1702266705
179,coquimbo,-29.9533,-71.3436,14.85,88,0,0.0,CL,1702266705
180,nar'yan-mar,67.6713,53.087,-22.72,91,100,4.92,RU,1702266705
181,murmashi,68.8154,32.8115,-13.77,77,75,2.0,RU,1702266705
182,kavaratti,10.5669,72.642,28.36,74,100,2.65,IN,1702266706
183,ghanzi,-21.5667,21.7833,18.53,88,45,2.28,BW,1702266703
184,port alfred,-33.5906,26.891,17.32,94,20,1.54,ZA,1702266706
185,haiku-pauwela,20.9219,-156.3051,27.01,74,40,7.72,US,1702266706
186,tara,56.8944,74.371,-29.23,95,28,3.48,RU,1702266706
187,vila velha,-20.3297,-40.2925,22.97,94,75,0.89,BR,1702266706
188,chilecito,-29.1619,-67.4974,22.58,47,5,2.43,AR,1702266707
189,kuala belait,4.5833,114.1833,29.09,66,75,1.4,BN,1702266707
190,dakhla,23.6848,-15.958,20.96,47,28,6.69,EH,1702266707
191,sechura,-5.5569,-80.8222,21.75,74,3,6.18,PE,1702266707
192,ola,59.5833,151.2833,-2.14,78,100,9.87,RU,1702266707
193,el abiodh sidi cheikh,32.893,0.5484,10.22,58,0,1.58,DZ,1702266707
194,tosontsengel,48.7567,98.2839,-23.72,95,97,0.76,MN,1702266707
195,midvagur,62.0511,-7.1939,6.46,87,100,3.09,FO,1702266707
196,babaeski,41.4325,27.0931,4.58,88,83,1.86,TR,1702266708
197,qui nhon,13.7667,109.2333,26.37,74,59,1.82,VN,1702266708
198,gebeit,21.0667,36.3167,19.94,81,29,1.19,SD,1702266708
199,chabahar,25.2919,60.643,23.29,45,40,2.08,IR,1702266708
200,tocoa,15.6833,-86.0,22.8,99,59,0.54,HN,1702266708
201,aldan,58.6031,125.3894,-29.79,93,100,2.54,RU,1702266708
202,arboletes,8.8505,-76.4269,26.81,89,100,2.59,CO,1702266708
203,labytnangi,66.6572,66.4183,-28.37,99,100,3.6,RU,1702266708
204,andovoranto,-18.95,49.1,26.71,77,48,0.46,MG,1702266709
205,nova vicosa,-17.8919,-39.3719,23.86,86,2,0.8,BR,1702266709
206,iquique,-20.2208,-70.1431,20.02,67,99,0.45,CL,1702266114
207,chinde,26.8418,88.0763,15.24,54,0,1.79,NP,1702266709
208,kuta,-8.7233,115.1723,30.0,70,20,6.26,ID,1702266635
209,urumqi,43.801,87.6005,-9.47,86,100,2.0,CN,1702266590
210,chonchi,-42.6128,-73.8092,10.62,95,98,1.15,CL,1702266709
211,shalya,57.2471,58.7298,-33.14,96,7,2.34,RU,1702266709
212,nuuk,64.1835,-51.7216,-2.66,74,100,1.54,GL,1702266709
213,st. john's,47.5649,-52.7093,0.93,95,75,4.12,CA,1702266710
214,hasaki,35.7333,140.8333,16.22,71,48,5.18,JP,1702266710
215,yomju-up,39.8933,124.5981,-3.06,96,100,5.9,KP,1702266710
216,guiratinga,-16.3494,-53.7583,23.82,75,96,1.79,BR,1702266710
217,bel ombre,-4.6167,55.4167,27.91,83,20,4.12,SC,1702266710
218,lamu,-2.2717,40.902,24.12,83,13,3.71,KE,1702266710
219,jinxiang,27.4327,120.6062,21.65,69,0,1.08,CN,1702266710
220,mugia,43.1041,-9.2179,18.28,87,100,11.05,ES,1702266710
221,lompoc,34.6391,-120.4579,13.21,61,0,1.54,US,1702266711
222,salakhid,32.8727,36.5727,11.92,70,5,2.42,SY,1702266711
223,acapulco de juarez,16.8634,-99.8901,26.55,78,99,1.39,MX,1702266711
224,neijiang,29.5835,105.0622,13.82,84,100,1.38,CN,1702266711
225,keflavik,64.0049,-22.5624,2.24,80,75,4.63,IS,1702266711
226,rampachodavaram,17.45,81.7667,23.95,62,65,0.31,IN,1702266711
227,kyabe,9.4515,18.9449,22.1,19,99,3.14,TD,1702266711
228,yarmouth,41.7057,-70.2286,16.26,95,100,5.66,US,1702266587
229,karratha,-20.7377,116.8463,32.85,15,4,7.3,AU,1702266711
230,afua,-0.1567,-50.3867,25.35,89,86,2.89,BR,1702266712
231,oltinko'l,40.8011,72.1634,5.5,50,100,0.35,UZ,1702266712
232,dolinsk,47.35,142.8,-10.71,78,86,6.73,RU,1702266712
233,gerash,27.6652,54.1371,4.08,29,84,1.18,IR,1702266712
234,usinsk,65.9939,57.5281,-25.48,97,100,6.57,RU,1702266712
235,vrangel',42.7297,133.0839,-7.81,34,100,4.37,RU,1702266712
236,al bardiyah,31.7561,25.0865,13.39,73,48,6.33,LY,1702266712
237,antofagasta,-23.65,-70.4,18.6,79,11,1.05,CL,1702266363
238,new norfolk,-42.7826,147.0587,20.51,28,10,0.74,AU,1702266712
239,revda,56.801,59.9303,-36.07,100,66,0.86,RU,1702266678
240,dunedin,-45.8742,170.5036,15.38,63,41,2.61,NZ,1702266712
241,ain temouchent,35.2975,-1.1404,11.02,51,0,0.79,DZ,1702266712
242,yershov,51.3513,48.2766,-12.05,61,53,5.01,RU,1702266699
243,namibe,-15.1961,12.1522,21.46,78,76,2.03,AO,1702266713
244,segovia,41.1667,-4.0,6.91,80,84,2.75,ES,1702266713
245,metlaoui,34.3208,8.4016,8.6,49,1,2.54,TN,1702266713
246,leer,53.2316,7.461,8.99,98,85,5.46,DE,1702266713
247,dudinka,69.4058,86.1778,-26.88,97,100,5.36,RU,1702266713
248,chul'man,56.8479,124.9104,-29.6,94,100,3.65,RU,1702266713
249,sorong,-0.8833,131.25,28.9,68,58,2.32,ID,1702266713
250,polyarnyy,69.1989,33.4478,-13.39,91,86,7.05,RU,1702266713
251,saint-joseph,-21.3667,55.6167,28.04,83,46,5.15,RE,1702266713
252,palmer,42.1584,-72.3287,17.23,83,100,6.69,US,1702266713
253,glens falls north,43.3351,-73.6825,6.93,94,100,4.12,US,1702266713
254,rikaze,29.25,88.8833,0.43,34,0,1.65,CN,1702266713
255,loukhi,66.0764,33.0381,-13.88,95,100,2.7,RU,1702266714
256,morong,14.5115,121.2393,31.01,62,73,4.57,PH,1702266714
257,severo-yeniseyskiy,60.3725,93.0408,-38.57,100,99,0.45,RU,1702266714
258,petropavlovsk-kamchatsky,53.0452,158.6483,-0.67,80,75,2.0,RU,1702266714
259,sinabang,2.4803,96.3801,27.04,81,100,1.66,ID,1702266714
260,la passe,45.5549,-0.8967,15.13,91,100,10.62,FR,1702266714
261,fale old settlement,-9.3852,-171.2468,28.32,79,98,7.31,TK,1702266714
262,katsuren-haebaru,26.3369,127.8719,26.43,71,75,4.12,JP,1702266714
263,magistral'nyy,56.1725,107.4458,-33.13,94,65,0.75,RU,1702266714
264,aleg,17.0481,-13.9209,22.2,20,60,5.2,MR,1702266714
265,losice,52.2113,22.718,1.14,99,100,6.12,PL,1702266715
266,gebre guracha,9.8,38.4,10.93,64,5,1.36,ET,1702266715
267,lubang,13.8584,120.124,27.88,78,39,7.01,PH,1702266715
268,pa daet,19.5049,99.9924,28.34,72,48,0.66,TH,1702266715
269,malango,-2.9627,119.9001,29.22,58,100,0.87,ID,1702266715
270,dul'durga,50.6761,113.5931,-21.42,70,6,0.76,RU,1702266715
271,corner brook,48.9667,-57.9484,-1.91,85,100,3.54,CA,1702266715
272,shatrovo,56.5167,64.6333,-31.38,96,16,3.45,RU,1702266715
273,mlimba,-8.8,35.8167,22.91,96,98,0.12,TZ,1702266715
274,yairipok,24.6667,94.0667,16.92,65,5,0.27,IN,1702266716
275,hobyo,5.3505,48.5268,26.82,75,97,8.07,SO,1702266717
276,igarka,67.4667,86.5833,-28.93,98,100,3.1,RU,1702266717
277,saldanha,-33.0117,17.9442,14.03,88,0,6.31,ZA,1702266717
278,la libertad,-2.2333,-80.9,24.01,83,36,4.2,EC,1702266063
279,dubbo,-32.25,148.6167,36.07,21,32,3.09,AU,1702266717
280,bridgewater,44.3835,-64.5155,11.49,99,100,4.12,CA,1702266718
281,newport,51.5877,-2.9984,10.94,86,47,8.65,GB,1702266718
282,gadzhiyevo,69.2551,33.3362,-14.41,93,88,6.88,RU,1702266718
283,basoko,1.2391,23.616,21.22,96,100,1.34,CD,1702266718
284,muroto-misakicho,33.2833,134.15,16.82,73,100,2.95,JP,1702266718
285,taos,36.4072,-105.5731,-1.78,54,0,2.06,US,1702266718
286,lienz,46.8289,12.769,5.1,87,100,1.32,AT,1702266718
287,uturoa,-16.7333,-151.4333,26.97,80,21,10.53,PF,1702266718
288,luderitz,-26.6481,15.1594,16.13,73,0,7.48,NA,1702266718
289,totness,5.8833,-56.3167,25.28,89,3,3.83,SR,1702266718
290,callao,-12.0667,-77.15,21.51,77,75,4.63,PE,1702266355
291,quellon,-43.1167,-73.6167,10.61,92,98,1.22,CL,1702266719
292,kanniyakumari,8.0833,77.5667,26.14,84,98,8.12,IN,1702266719
293,hammerfest,70.6634,23.6821,-2.75,86,100,4.12,NO,1702266719
294,cururupu,-1.8283,-44.8683,25.62,82,98,2.4,BR,1702266719
295,acatlan de osorio,18.2,-98.05,18.09,65,100,3.54,MX,1702266719
296,nizhnyaya tavda,57.6731,66.1725,-32.25,99,8,2.15,RU,1702266719
297,georgetown,5.4112,100.3354,30.97,66,20,4.12,MY,1702266512
298,kikwit,-5.041,18.8162,20.74,98,100,0.31,CD,1702266720
299,verkhovazh'ye,60.7472,42.0465,-14.36,91,100,4.43,RU,1702266720
300,bakchar,57.0186,82.0711,-29.66,95,24,2.98,RU,1702266720
301,weno,7.4515,151.8468,28.11,79,50,8.05,FM,1702266720
302,sonoita,31.85,-112.8333,13.3,17,7,2.94,MX,1702266720
303,vadso,70.0744,29.7487,-9.91,85,75,9.77,NO,1702266720
304,kone,-21.0595,164.8658,30.15,43,93,4.2,NC,1702266721
305,ploudalmezeau,48.5333,-4.65,12.38,100,100,3.6,FR,1702266721
306,tazovsky,67.4667,78.7,-23.73,97,100,5.01,RU,1702266721
307,marsh harbour,26.5412,-77.0636,24.59,85,79,10.75,BS,1702266721
308,sao jose da coroa grande,-8.8978,-35.1478,25.36,78,2,3.2,BR,1702266721
309,funadhoo,6.15,73.2667,28.05,78,89,2.52,MV,1702266721
310,east london,-33.0153,27.9116,17.52,94,75,1.03,ZA,1702266721
311,kourou,5.1552,-52.6478,26.03,92,86,3.13,GF,1702266722
312,as sulayyil,20.4607,45.5779,12.14,30,41,1.65,SA,1702266722
313,kyren,51.6828,102.1408,-21.35,80,33,0.5,RU,1702266722
314,ponta delgada,37.7333,-25.6667,18.44,82,40,6.17,PT,1702266722
315,ta`u,-14.2336,-169.5144,24.93,91,100,8.91,AS,1702266723
316,mount gambier,-37.8333,140.7667,19.48,76,100,6.52,AU,1702266723
317,moranbah,-22.0016,148.0466,26.57,53,100,12.16,AU,1702266449
318,lere,10.387,8.5726,15.92,33,0,2.66,NG,1702266724
319,faya-largeau,17.9257,19.1043,17.53,31,0,10.99,TD,1702266724
320,gavarr,40.354,45.1239,0.86,72,23,2.26,AM,1702266724
321,daru,-9.0763,143.2092,29.91,58,88,3.71,PG,1702266724
322,pago pago,-14.2781,-170.7025,29.55,89,75,3.6,AS,1702266724
323,aykhal,66.0,111.5,-26.83,98,100,2.46,RU,1702266724
324,byron bay,-28.65,153.6167,28.73,55,45,4.11,AU,1702266725
325,price,39.5994,-110.8107,-3.82,49,0,2.57,US,1702266644
326,an nuhud,12.7,28.4333,21.02,14,98,4.48,SD,1702266725
327,youhao,47.8667,128.8333,-17.79,66,6,3.67,CN,1702266725
328,guerrero negro,27.9769,-114.0611,18.2,53,0,1.15,MX,1702266686
329,howard springs,-12.497,131.047,36.1,65,23,3.18,AU,1702266726
330,plastun,44.7561,136.2939,-11.19,37,19,3.33,RU,1702266726
331,ust'-kulom,61.6864,53.6902,-26.76,98,100,2.11,RU,1702266726
332,bereket,39.2446,55.5154,9.98,87,51,5.56,TM,1702266726
333,mata-utu,-13.2816,-176.1745,28.34,76,98,7.25,WF,1702266726
334,masaurhi buzurg,25.35,85.0333,18.94,34,0,1.9,IN,1702266727
335,ormara,25.2088,64.6357,22.93,25,8,2.29,PK,1702266727
336,aral,40.5156,81.2636,-0.68,41,29,3.56,CN,1702266727
337,ballina,-28.8667,153.5667,28.77,56,27,4.69,AU,1702266727
338,lionel town,17.8101,-77.2406,27.94,80,5,3.97,JM,1702266728
339,taulaga,-11.0553,-171.0883,28.0,80,100,8.08,AS,1702266728
340,puerto gaitan,4.3133,-72.0816,25.12,85,38,1.1,CO,1702266728
341,tatishchevo,51.6703,45.5953,-12.08,90,100,5.78,RU,1702266728
342,buga,3.9009,-76.2978,20.84,92,96,0.73,CO,1702266728
343,taltal,-25.4,-70.4833,16.49,83,68,0.69,CL,1702266729
344,pacific grove,36.6177,-121.9166,14.25,54,0,2.57,US,1702266729
345,anuradhapura,8.3565,80.4173,26.83,83,100,2.54,LK,1702266729
346,kisangani,0.5167,25.2,19.98,99,96,0.69,CD,1702266729
347,shimoda,34.6667,138.95,17.2,64,42,3.97,JP,1702266729
348,pisco,-13.7,-76.2167,20.57,77,0,5.66,PE,1702266729
349,shangzhi,45.2167,127.9667,-18.15,81,99,1.53,CN,1702266729
350,riosucio,5.4216,-75.7032,13.89,97,100,0.26,CO,1702266730
351,bahia blanca,-38.7196,-62.2724,24.9,32,71,4.47,AR,1702266730
352,kongolo,-5.3833,27.0,21.26,98,100,0.6,CD,1702266730
353,carutapera,-1.195,-46.02,25.92,83,89,3.76,BR,1702266730
354,tres lagoas,-20.7511,-51.6783,23.21,89,100,3.56,BR,1702266722
355,turkmenabat,39.0733,63.5786,0.99,93,69,1.03,TM,1702266730
356,mersa matruh,31.3525,27.2453,12.11,76,0,1.54,EG,1702266730
357,rabo de peixe,37.8,-25.5833,17.77,99,40,6.17,PT,1702266731
358,tamalin,21.35,-97.8,16.15,53,97,1.18,MX,1702266731
359,acarau,-2.8856,-40.12,26.43,75,95,6.12,BR,1702266731
360,arrifes,37.7667,-25.7,17.18,82,40,6.17,PT,1702266731
361,kapa'a,22.0752,-159.319,25.18,83,75,4.12,US,1702266731
362,taoudenni,22.6783,-3.9836,16.6,34,100,7.33,ML,1702266731
363,medina,24.4686,39.6142,19.24,20,0,4.63,SA,1702266731
364,jinghong,21.991,100.7341,26.22,53,0,1.01,CN,1702266731
365,tulagi,-9.0996,160.1476,28.22,74,89,4.34,SB,1702266732
366,lorengau,-2.0226,147.2712,29.79,74,100,7.22,PG,1702266732
367,linfen,36.0889,111.5189,-0.15,99,76,0.79,CN,1702266732
368,belokurikha,51.9959,84.9896,-18.54,86,48,0.97,RU,1702266732
369,fiambala,-27.6871,-67.6149,20.97,62,46,0.66,AR,1702266732
370,zhalantun,48.0,122.7167,-19.48,72,20,2.2,CN,1702266732
371,massenya,11.4039,16.1705,19.29,29,0,4.47,TD,1702266733
372,nikel,69.4128,30.222,-13.9,91,100,6.36,RU,1702266733
373,yorkton,51.2167,-102.4677,-8.09,100,0,4.63,CA,1702266733
374,kilindoni,-7.9139,39.6668,26.62,81,60,1.61,TZ,1702266733
375,kruisfontein,-34.0033,24.7314,13.27,85,0,1.66,ZA,1702266733
376,sumbe,-11.2061,13.8437,25.92,88,100,2.91,AO,1702266734
377,kismayo,-0.3582,42.5454,27.64,77,13,5.34,SO,1702266734
378,touros,-5.1989,-35.4608,26.74,69,62,3.14,BR,1702266734
379,uliastay,47.7417,96.8444,-18.93,78,3,2.08,MN,1702266734
380,saiha,22.4833,92.9667,23.55,47,2,0.55,IN,1702266734
381,duiwelskloof,-23.6934,30.14,18.06,98,100,1.15,ZA,1702266735
382,nagqu,31.5,92.0,-7.81,12,2,4.33,CN,1702266735
383,swift current,50.2834,-107.8014,-1.55,86,0,4.63,CA,1702266735
384,rehoboth,-23.3167,17.0833,18.2,18,0,3.59,NA,1702266735
385,gamay,12.3854,125.2979,28.04,83,100,3.21,PH,1702266735
386,alo,7.4178,6.7371,26.49,45,67,0.7,NG,1702266735
387,sydney mines,46.2367,-60.2177,8.33,95,100,4.63,CA,1702266735
388,vanimo,-2.6741,141.3028,29.01,78,91,4.64,PG,1702266735
389,waddan,29.1614,16.139,11.11,85,16,4.98,LY,1702266736
390,gurupa,-1.405,-51.64,24.88,88,95,2.13,BR,1702266736
391,konarka,19.9,86.1167,22.22,42,1,3.5,IN,1702266736
392,recani,31.2846,-4.2688,13.2,52,0,0.83,MA,1702266736
393,thames,-37.1333,175.5333,20.39,65,40,2.77,NZ,1702266736
394,pineville,31.3224,-92.4343,5.94,73,0,1.54,US,1702266480
395,sao gabriel,-30.3364,-54.32,17.3,96,12,3.15,BR,1702266736
396,youghal,51.95,-7.8506,7.53,100,66,5.55,IE,1702266736
397,chetwayi,10.5333,76.05,28.26,72,88,5.58,IN,1702266737
398,slyudyanka,51.6594,103.7061,-18.54,85,37,1.31,RU,1702266737
399,la'ie,21.6477,-157.9253,27.98,82,19,2.68,US,1702266679
400,najran,17.4924,44.1277,7.36,44,68,0.6,SA,1702266737
401,tsiombe,-25.3,45.4833,27.66,63,98,1.32,MG,1702266737
402,prince rupert,54.3161,-130.3201,4.83,95,0,5.66,CA,1702266737
403,zanzibar,-6.1639,39.1979,26.04,94,75,0.0,TZ,1702266513
404,horta,38.5333,-28.6333,16.68,74,85,8.94,PT,1702266718
405,ban khlong bang sao thong,13.6417,100.8327,33.01,58,20,1.03,TH,1702266738
406,colonia menno,-22.3667,-59.8167,23.0,86,64,1.98,PY,1702266738
407,belyy yar,53.6039,91.3903,-33.06,75,77,0.0,RU,1702266738
408,vernal,40.4555,-109.5287,-2.41,51,0,0.0,US,1702266686
409,juneau,58.3019,-134.4197,2.0,81,100,5.14,US,1702266738
410,vila franca do campo,37.7167,-25.4333,18.27,99,100,5.64,PT,1702266739
411,gulf shores,30.246,-87.7008,10.03,70,0,3.6,US,1702266739
412,selma,36.5708,-119.6121,10.68,81,20,0.0,US,1702266739
413,kiunga,-6.1219,141.2906,29.53,76,98,1.27,PG,1702266739
414,dayr hafir,36.1569,37.7078,11.54,84,93,6.36,SY,1702266739
415,scarborough,54.2797,-0.4044,8.14,92,100,0.89,GB,1702266739
416,sisimiut,66.9395,-53.6735,-4.11,87,100,5.74,GL,1702266739
417,cadale,2.7603,46.3222,27.38,77,29,5.83,SO,1702266740
418,qaqortoq,60.7167,-46.0333,-10.12,74,11,2.93,GL,1702266740
419,flin flon,54.7682,-101.865,-8.04,88,100,3.68,CA,1702266740
420,jiagedaqi,50.4167,124.1167,-18.48,56,1,2.06,CN,1702266740
421,kharan,28.5833,65.4167,15.08,21,0,1.29,PK,1702266740
422,borovskoy,53.8,64.15,-29.68,95,86,5.18,KZ,1702266741
423,nadym,65.5333,72.5167,-30.81,92,93,4.39,RU,1702266741
424,guanica,17.9716,-66.908,25.59,50,2,3.24,PR,1702266741
425,kingscliff,-28.2667,153.5667,29.29,47,22,4.63,AU,1702266741
426,kill devil hills,36.0307,-75.676,17.21,97,100,9.26,US,1702266741
427,parry sound,45.3501,-80.033,1.95,86,100,4.35,CA,1702266742
428,tarinkot,32.6268,65.8733,9.23,26,0,1.03,AF,1702266742
429,dhahran,26.3032,50.1353,20.6,48,0,3.09,SA,1702266742
430,hauterive,46.0901,3.4459,15.42,93,100,4.08,FR,1702266742
431,sesheke,-17.4759,24.2968,20.29,89,100,0.88,ZM,1702266743
432,isangel,-19.55,169.2667,28.06,69,75,6.17,VU,1702266743
433,minas de marcona,-15.2119,-75.1103,15.7,80,93,4.48,PE,1702266743
434,galax,36.6612,-80.924,1.53,95,100,5.81,US,1702266743
435,emerald,-23.5333,148.1667,27.97,50,100,6.59,AU,1702266743
436,vorkuta,67.5,64.0,-25.67,100,100,4.18,RU,1702266744
437,nemuro,43.3236,145.575,0.39,50,51,5.37,JP,1702266744
438,walvis bay,-22.9575,14.5053,16.72,77,77,3.6,NA,1702266744
439,saint-francois,46.4154,3.9054,13.14,95,100,1.54,FR,1702266744
440,winnemucca,40.973,-117.7357,-2.97,68,0,1.54,US,1702266745
441,dwarka,22.2394,68.9678,24.3,41,13,3.17,IN,1702266745
442,kuressaare,58.2481,22.5039,0.53,99,100,6.71,EE,1702266745
443,ataq,14.5377,46.8319,14.33,32,22,1.66,YE,1702266745
444,zhangjiakou,40.81,114.8794,-4.53,81,93,1.27,CN,1702266745
445,la cruz,23.9167,-106.9,20.85,68,0,2.92,MX,1702266745
446,morehead city,34.7229,-76.726,19.01,87,100,4.63,US,1702266583
447,vernon,50.2581,-119.2691,4.61,91,100,1.79,CA,1702266616
448,mitu,1.1983,-70.1733,22.31,99,25,1.2,CO,1702266746
449,posse,-14.0931,-46.3694,24.48,57,96,1.16,BR,1702266746
450,tadjourah,12.0,42.5,20.32,72,23,5.08,DJ,1702266746
451,pospelikha,51.95,81.7667,-22.17,93,39,3.98,RU,1702266746
452,bengkulu,-3.8004,102.2655,27.84,72,95,2.93,ID,1702266746
453,bello,6.3373,-75.558,19.83,95,100,1.79,CO,1702266546
454,molepolole,-24.4066,25.4951,17.08,82,100,3.72,BW,1702266747
455,shimo-furano,43.35,142.3833,-2.78,79,100,4.63,JP,1702266747
456,wanning,18.8003,110.3967,27.1,72,42,2.38,CN,1702266747
457,tabas,33.5959,56.9244,13.47,32,79,0.98,IR,1702266747
458,tekeli,44.83,78.8239,-4.5,93,100,2.49,KZ,1702266747
459,lome,6.1375,1.2123,27.09,89,20,2.06,TG,1702266748
460,tralee,52.2704,-9.7026,7.46,93,13,1.84,IE,1702266748
461,campanario,38.8644,-5.6174,9.86,91,1,1.06,ES,1702266748
462,gaoping,30.7758,106.1029,13.94,73,100,3.03,CN,1702266748
463,harnai,30.1005,67.9374,16.44,16,0,1.75,PK,1702266748
464,noumea,-22.2763,166.4572,27.99,60,78,10.07,NC,1702266420
465,lubumbashi,-11.6609,27.4794,17.83,97,100,0.79,CD,1702266749
466,chesma,53.8111,60.6533,-29.84,94,83,5.19,RU,1702266750
467,san jose de jachal,-30.2406,-68.7469,21.44,43,0,2.71,AR,1702266750
468,mirnyy,62.5353,113.9611,-28.95,96,99,3.03,RU,1702266750
469,mount isa,-20.7333,139.5,33.87,29,5,5.14,AU,1702266751
470,moyynkum,44.2914,72.9469,-6.29,85,100,2.02,KZ,1702266751
471,argo,37.6333,22.7333,13.21,92,100,1.99,GR,1702266751
472,sabinas,27.85,-101.1167,10.64,28,0,3.47,MX,1702266751
473,lahaina,20.8783,-156.6825,28.0,91,11,2.93,US,1702266751
474,kirakira,-10.4544,161.9205,27.82,81,95,1.0,SB,1702266752
475,kristiansund,63.1115,7.732,0.36,80,100,2.06,NO,1702266752
476,phan thiet,10.9333,108.1,31.26,49,67,5.15,VN,1702266752
477,san vicente de canete,-13.0751,-76.3835,19.79,84,99,1.89,PE,1702266752
478,altai,46.3722,96.2583,-13.02,66,66,3.11,MN,1702266612
479,sparta,43.9441,-90.8129,-3.26,89,100,0.0,US,1702266752
480,taikang,46.8333,124.4167,-16.58,54,32,3.15,CN,1702266753
481,jianshui,23.6363,102.8264,22.39,47,12,4.06,CN,1702266753
482,ain bessem,36.2933,3.6732,11.3,68,13,1.32,DZ,1702266753
483,changji,44.0167,87.3167,-7.56,86,100,2.0,CN,1702266753
484,sinan,34.8262,126.1086,14.06,90,100,8.62,KR,1702266754
485,malvik,63.4333,10.6833,-2.23,78,39,3.09,NO,1702266754
486,prince george,53.9166,-122.753,-1.32,94,100,2.06,CA,1702266754
487,valparaiso,-33.0393,-71.6273,14.8,94,40,2.06,CL,1702266721
488,el calafate,-50.3408,-72.2768,8.4,78,58,2.28,AR,1702266754
489,oriximina,-1.7656,-55.8661,23.87,93,86,1.49,BR,1702266755
490,inhambane,-23.865,35.3833,26.41,87,60,4.21,MZ,1702266755
491,saint-georges,12.0564,-61.7485,25.82,89,20,5.14,GD,1702266755
492,ceeldheer,3.8488,47.1806,26.72,80,24,6.53,SO,1702266755
493,mogadishu,2.0371,45.3438,27.4,79,48,6.34,SO,1702266756
494,roberval,48.5168,-72.2324,2.35,93,100,3.09,CA,1702266756
495,puerto armuelles,8.2833,-82.8667,27.87,86,75,1.79,PA,1702266660
496,ilhabela,-23.7781,-45.3581,22.32,91,100,3.8,BR,1702266756
497,mantua,45.1667,10.7833,3.88,88,93,1.93,IT,1702266756
498,port augusta,-32.5,137.7667,22.99,45,82,8.07,AU,1702266756
499,castillos,-34.1667,-53.8333,15.34,97,9,1.73,UY,1702266757
500,happy valley-goose bay,53.3168,-60.3315,3.17,75,100,3.09,CA,1702266757
501,barranca,-10.75,-77.7667,19.51,85,88,3.36,PE,1702266757
502,al ghayzah,16.2079,52.176,22.48,40,7,2.87,YE,1702266757
503,naze,28.3667,129.4833,24.51,79,47,6.31,JP,1702266758
504,huaicheng,23.9051,112.1931,28.69,55,35,0.8,CN,1702266758
505,egilsstadir,65.2653,-14.3948,-7.05,100,100,2.06,IS,1702266758
506,matoury,4.8483,-52.3317,25.98,94,20,0.0,GF,1702266758
507,nishinoomote,30.7333,131.0,19.31,100,75,6.69,JP,1702266758
508,mana,5.6592,-53.7767,25.17,91,27,3.37,GF,1702266758
509,muana,-1.5283,-49.2167,25.31,87,70,2.72,BR,1702266759
510,queenstown,-31.8976,26.8753,11.58,91,100,1.34,ZA,1702266759
511,hellenthal,50.4833,6.4333,9.46,86,75,6.69,DE,1702266759
512,timaru,-44.4,171.25,19.48,62,5,2.68,NZ,1702266759
513,blairgowrie,56.5916,-3.3405,5.01,96,100,2.64,GB,1702266759
514,amursk,50.2261,136.8994,-21.68,79,46,6.71,RU,1702266759
515,gasa,31.5,34.4667,17.51,45,1,2.57,PS,1702266760
516,dzhalagash,45.0833,64.6667,-11.91,33,3,7.12,KZ,1702266760
517,turpan,42.9333,89.1667,2.75,57,35,0.96,CN,1702266760
518,ar ruways,24.1103,52.7306,22.72,68,91,3.06,AE,1702266760
519,plettenberg bay,-34.0527,23.3716,15.71,77,0,1.2,ZA,1702266760
520,yuzhno-kurilsk,44.0306,145.8556,0.76,76,89,8.6,RU,1702266760
521,villamontes,-21.25,-63.5,21.54,83,100,1.6,BO,1702266760
522,geraldton,-28.7667,114.6,34.23,10,0,7.2,AU,1702266760
523,camalu,30.85,-116.0667,16.19,38,39,1.01,MX,1702266761
524,terenozek,45.05,64.9833,-11.87,33,4,7.3,KZ,1702266761
525,dobrush,52.4089,31.3237,1.12,99,100,4.75,BY,1702266761
526,esquel,-42.9,-71.3167,11.36,84,92,2.63,AR,1702266761
527,cassilandia,-19.1133,-51.7342,22.05,93,100,1.4,BR,1702266615
528,tazacorte,28.629,-17.9293,20.64,39,0,4.92,ES,1702266761
529,muromtsevo,56.3724,75.2418,-26.92,97,77,3.77,RU,1702266761
530,dunda,-8.1167,34.25,19.38,93,99,0.82,TZ,1702266761
531,grand baie,-20.0182,57.5802,26.36,82,100,1.34,MU,1702266761
532,lerwick,60.1545,-1.1494,7.0,78,100,7.19,GB,1702266762
533,barah,13.7,30.3667,20.42,12,52,3.01,SD,1702266762
534,kirensk,57.7853,108.1119,-33.35,99,97,1.34,RU,1702266762
535,staraya mayna,54.6,48.95,-20.94,92,33,2.87,RU,1702266762
536,bela,25.9333,81.9833,19.87,30,0,1.38,IN,1702266762
537,embi,48.8264,58.1442,-18.64,78,6,7.12,KZ,1702266762
538,ilha de mocambique,-15.0342,40.7358,28.54,81,35,6.34,MZ,1702266762
539,barra de santo antonio,-9.4047,-35.5072,23.6,81,1,3.15,BR,1702266762
540,alice springs,-23.7,133.8833,20.75,32,100,2.06,AU,1702266763
541,chifeng,42.2683,118.9636,-10.65,51,96,2.6,CN,1702266763
542,pekanbaru,0.5333,101.45,29.18,74,75,2.06,ID,1702266763
543,kasongo,-4.45,26.6667,20.32,99,100,0.94,CD,1702266763
544,okhotsk,59.3833,143.3,-7.72,93,100,3.08,RU,1702266763
545,bodaybo,57.8506,114.1933,-27.79,94,100,0.15,RU,1702266763
546,paita,-5.0892,-81.1144,21.2,80,4,5.13,PE,1702266763
547,east grand forks,47.93,-97.0245,-6.87,86,100,4.12,US,1702266764
548,lushnje,40.9419,19.705,6.36,75,6,1.63,AL,1702266764
549,salyan,39.5936,48.9805,8.8,74,86,7.69,AZ,1702266764
550,muar,2.0442,102.5689,31.02,71,58,2.06,MY,1702266764
551,nizhnesortymskiy,62.4397,71.7603,-39.27,100,41,0.89,RU,1702266764
552,san antonio de pale,-1.4014,5.6325,27.35,79,98,6.35,GQ,1702266764
553,salavan,15.7167,106.4167,32.97,45,21,0.3,LA,1702266764
554,darovskoy,58.77,47.9564,-20.18,88,100,4.42,RU,1702266765
555,lianhe,47.1333,129.2667,-14.97,61,5,2.13,CN,1702266765
556,howrah,22.5892,88.3103,20.0,73,0,2.57,IN,1702266765
557,chibougamau,49.9168,-74.3659,-6.21,93,40,3.09,CA,1702266765
558,zag,46.9441,99.165,-18.79,93,96,0.82,MN,1702266765
559,lycksele,64.5954,18.6735,-8.07,86,100,3.09,SE,1702266765
560,sao joao da barra,-21.6403,-41.0511,22.93,83,89,2.67,BR,1702266765
561,red wing,44.5625,-92.5338,-3.92,82,100,1.54,US,1702266766
562,fortaleza,-3.7227,-38.5247,28.37,73,40,4.12,BR,1702266766
563,aver-o-mar,41.4078,-8.7812,17.31,82,100,6.17,PT,1702266766
564,bovalino,38.149,16.174,15.75,77,26,4.14,IT,1702266766
565,fort mcmurray,56.7268,-111.381,-3.23,63,0,10.8,CA,1702266766
566,port isabel,26.0734,-97.2086,9.02,71,0,1.54,US,1702266766
567,kayangel,8.0823,134.7173,28.8,78,31,6.89,PW,1702266766
568,chivhu,-19.0211,30.8922,18.93,80,82,3.14,ZW,1702266766
569,al jawf,29.5,38.75,18.38,48,100,4.72,SA,1702266766
570,kyzyl-suu,42.3414,78.0056,-1.29,69,100,1.35,KG,1702266767
571,primero de mayo,-32.2552,-58.4228,19.34,77,18,3.09,AR,1702266767
572,deyang,31.1302,104.382,15.7,61,81,0.16,CN,1702266767
