City_ID,City,Lat,Lng,Max Temp,Humidity,Cloudiness,Wind Speed,Country,Date
0,stanley,54.868,-1.6985,17.62,92,75,1.54,GB,1691725869
1,georgetown,5.4112,100.3354,30.97,66,20,3.6,MY,1691725869
2,alofi,-19.0595,-169.9187,27.94,78,40,3.09,NU,1691725869
3,port elizabeth,-33.918,25.5701,20.05,45,0,3.09,ZA,1691725869
4,bredasdorp,-34.5322,20.0403,12.1,68,0,1.38,ZA,1691725870
5,port-aux-francais,-49.35,70.2167,3.22,80,41,16.57,TF,1691725870
6,chonchi,-42.6128,-73.8092,4.51,94,63,2.01,CL,1691725870
7,yellowknife,62.456,-114.3525,17.29,77,75,2.57,CA,1691725870
8,puerto natales,-51.7236,-72.4875,-0.96,94,26,1.47,CL,1691725576
9,papatowai,-46.5619,169.4708,7.64,81,99,2.3,NZ,1691725871
10,rosso,16.4986,-15.8153,26.09,76,98,6.43,SN,1691725871
11,plastun,44.7561,136.2939,17.0,96,100,3.22,RU,1691725871
12,ribeira grande,38.5167,-28.7,20.43,87,0,3.58,PT,1691725871
13,waitangi,-43.9535,-176.5597,11.57,90,100,2.24,NZ,1691725871
14,blackmans bay,-43.0167,147.3167,15.07,69,100,2.74,AU,1691725871
15,invercargill,-46.4,168.35,8.9,77,86,1.79,NZ,1691725872
16,salekhard,66.53,66.6019,13.29,59,0,3.8,RU,1691725872
17,longyearbyen,78.2186,15.6401,9.91,76,100,0.0,SJ,1691725872
18,qamdo,31.1667,97.2333,10.61,74,100,1.76,CN,1691725872
19,carrigaline,51.8117,-8.3986,15.86,100,75,6.17,IE,1691725872
20,qaqortoq,60.7167,-46.0333,6.3,80,100,0.57,GL,1691725872
21,margaret river,-33.95,115.0667,15.66,64,31,3.49,AU,1691725872
22,grytviken,-54.2811,-36.5092,0.48,96,100,5.71,GS,1691725873
23,maricopa,33.0581,-112.0476,38.12,25,40,3.6,US,1691725873
24,yazman,29.1212,71.7446,33.81,46,35,8.36,PK,1691725873
25,mangrol,21.1167,70.1167,27.11,81,100,6.94,IN,1691725873
26,klyuchi,52.2667,79.1667,15.23,79,100,6.28,RU,1691725873
27,codrington,-38.2667,141.9667,13.81,72,100,4.98,AU,1691725873
28,edinburgh of the seven seas,-37.0676,-12.3116,11.86,72,96,11.9,SH,1691725873
29,ushuaia,-54.8,-68.3,1.81,87,75,2.57,AR,1691725873
30,iqaluit,63.7506,-68.5145,3.85,100,100,3.09,CA,1691725873
31,kulhudhuffushi,6.6221,73.07,27.82,77,93,6.37,MV,1691725874
32,ruse,43.8564,25.9708,17.75,67,80,3.3,BG,1691725874
33,isafjordur,66.0755,-23.124,6.7,92,83,4.57,IS,1691725874
34,atafu village,-8.5421,-172.5159,28.12,76,85,4.56,TK,1691725874
35,new norfolk,-42.7826,147.0587,15.72,71,100,3.28,AU,1691725874
36,lukolela,-1.0605,17.1821,20.27,94,78,1.22,CD,1691725874
37,tazovsky,67.4667,78.7,8.56,46,0,11.15,RU,1691725874
38,west island,-12.1568,96.8225,26.99,78,100,7.2,CC,1691725874
39,vorgashor,67.5833,63.95,9.73,65,60,4.83,RU,1691725874
40,adamstown,-25.066,-130.1015,18.2,59,51,11.16,PN,1691725875
41,ixtapa,20.7,-105.2,28.57,89,100,1.03,MX,1691725875
42,mikomeseng,2.1361,10.6132,20.03,99,98,0.74,GQ,1691725875
43,cockburn town,21.4612,-71.1419,28.89,85,100,8.89,TC,1691725875
44,kingston,17.997,-76.7936,26.8,96,41,0.45,JM,1691725875
45,luderitz,-26.6481,15.1594,14.61,77,77,3.06,NA,1691725875
46,st. john's,47.5649,-52.7093,17.6,95,100,1.54,CA,1691725866
47,lompoc,34.6391,-120.4579,21.08,87,100,1.54,US,1691725875
48,thompson,55.7435,-97.8558,15.09,67,75,1.54,CA,1691725875
49,ust-tsilma,65.441,52.1498,17.93,59,5,0.9,RU,1691725876
50,yoloten,37.2989,62.3597,33.66,20,0,2.85,TM,1691725876
51,tralee,52.2704,-9.7026,13.05,96,11,2.55,IE,1691725876
52,lata,40.1629,-8.3327,18.37,92,0,1.41,PT,1691725876
53,vorkuta,67.5,64.0,9.97,65,57,4.96,RU,1691725876
54,jamestown,42.097,-79.2353,17.8,95,75,4.12,US,1691725876
55,college,64.8569,-147.8028,19.97,87,100,2.06,US,1691725876
56,velikiye luki,56.34,30.5452,14.99,75,100,1.69,RU,1691725876
57,coahuayana de hidalgo,18.7,-103.6583,26.63,87,90,0.19,MX,1691725876
58,san patricio,28.017,-97.5169,29.97,82,0,7.01,US,1691725876
59,kapuskasing,49.4169,-82.4331,15.05,94,100,5.14,CA,1691725876
60,arteche,12.2645,125.4048,30.88,69,85,2.06,PH,1691725877
61,petropavlovsk-kamchatsky,53.0452,158.6483,19.33,52,20,6.0,RU,1691725877
62,boguchany,58.3814,97.4531,24.44,46,49,2.33,RU,1691725877
63,yamada,39.4667,141.95,29.38,67,0,4.9,JP,1691725877
64,bilibino,68.0546,166.4372,17.05,52,94,2.3,RU,1691725877
65,port mathurin,-19.6833,63.4167,23.19,79,25,9.46,MU,1691725877
66,xilin hot,43.9667,116.0333,26.2,60,96,4.67,CN,1691725877
67,yunak,38.8142,31.7322,17.86,81,0,3.4,TR,1691725877
68,albany,42.6001,-73.9662,18.69,93,22,1.97,US,1691725877
69,bethel,41.3712,-73.414,20.67,87,63,1.89,US,1691725877
70,tofol,5.3248,163.0078,27.88,83,75,1.54,FM,1691725877
71,changli,39.7042,119.1506,28.96,55,44,1.02,CN,1691725878
72,posto fiscal rolim de moura,-13.0833,-62.2667,25.74,49,28,0.52,BR,1691725878
73,hilo,19.7297,-155.09,27.85,81,75,4.12,US,1691725878
74,sandnessjoen,66.0217,12.6316,12.06,94,75,2.06,NO,1691725878
75,north bay,46.3168,-79.4663,16.08,93,20,1.54,CA,1691725878
76,markovo,57.3206,107.0881,19.8,68,100,3.28,RU,1691725878
77,thunder bay,48.4001,-89.3168,15.99,77,75,3.09,CA,1691725588
78,weno,7.4515,151.8468,30.97,70,100,3.6,FM,1691725878
79,nagqu,31.5,92.0,12.96,62,100,0.75,CN,1691725878
80,bulandshahr,28.4,77.85,32.58,56,44,3.17,IN,1691725878
81,inarajan village,13.2736,144.7484,28.54,94,100,8.53,GU,1691725878
82,puerto ayora,-0.7393,-90.3518,24.19,93,33,1.79,EC,1691725878
83,talnakh,69.4865,88.3972,7.34,79,100,7.49,RU,1691725879
84,westerland,54.9079,8.3033,16.01,94,75,0.51,DE,1691725879
85,kalawit,8.0667,122.5167,29.6,74,84,3.08,PH,1691725879
86,ta`u,-14.2336,-169.5144,27.61,77,94,6.86,AS,1691725879
87,nacala,-14.5428,40.6728,18.88,87,1,4.44,MZ,1691725879
88,opuwo,-18.0607,13.84,15.53,33,0,2.75,NA,1691725879
89,broome,42.2506,-75.833,18.15,95,0,1.34,US,1691725879
90,illapel,-31.6308,-71.1653,10.64,74,42,1.18,CL,1691725880
91,nova vicosa,-17.8919,-39.3719,21.88,81,30,2.05,BR,1691725880
92,jodhpur,26.2867,73.03,29.22,62,16,7.4,IN,1691725880
93,bikenibeu village,1.3673,173.1241,27.98,89,40,1.03,KI,1691725880
94,tadine,-21.55,167.8833,19.69,55,0,7.51,NC,1691725880
95,dryden,49.7833,-92.7503,16.16,67,100,4.12,CA,1691725880
96,utrik,11.2278,169.8474,28.45,76,23,6.37,MH,1691725880
97,brisas de zicatela,15.8369,-97.0419,30.29,58,0,0.0,MX,1691725880
98,qandala,11.472,49.8728,31.63,51,66,3.53,SO,1691725880
99,east london,-33.0153,27.9116,13.52,82,0,3.6,ZA,1691725881
100,renfrew,55.872,-4.3925,18.97,84,100,2.57,GB,1691725881
101,agat village,13.3886,144.6585,28.52,88,75,4.63,GU,1691725881
102,khandyga,62.6667,135.6,26.09,28,0,2.44,RU,1691725881
103,susuman,62.7833,148.1667,20.84,36,4,0.3,RU,1691725881
104,rybinsk,58.0446,38.8426,18.3,83,25,0.8,RU,1691725881
105,ilulissat,69.2167,-51.1,7.01,87,100,1.03,GL,1691725881
106,punta arenas,-53.15,-70.9167,1.34,74,11,5.54,CL,1691725642
107,laramie,41.3114,-105.5911,20.05,33,40,3.6,US,1691725881
108,constantia,44.1833,28.65,19.38,71,99,8.34,RO,1691725882
109,kruisfontein,-34.0033,24.7314,18.82,34,0,5.9,ZA,1691725882
110,chulakkurgan,43.765,69.1814,25.83,36,0,5.02,KZ,1691725882
111,oranjemund,-28.55,16.4333,16.65,61,27,0.9,NA,1691725882
112,nuku'alofa,-21.1333,-175.2,22.19,83,75,2.57,TO,1691725623
113,aasiaat,68.7098,-52.8699,3.8,94,100,1.91,GL,1691725882
114,la passe,45.5549,-0.8967,19.13,92,74,1.83,FR,1691725882
115,ambalangoda,6.2355,80.0538,28.51,72,71,3.14,LK,1691725882
116,belmonte,-15.8631,-38.8828,21.43,86,72,1.88,BR,1691725882
117,tiksi,71.6872,128.8694,20.95,34,10,5.97,RU,1691725884
118,pikalevo,59.5183,34.1664,16.59,70,53,1.03,RU,1691725884
119,uturoa,-16.7333,-151.4333,25.17,68,99,9.14,PF,1691725884
120,fort st. john,56.2499,-120.8529,15.94,77,75,2.06,CA,1691725884
121,kushiro,42.975,144.3747,25.53,94,75,4.12,JP,1691725884
122,sitka,57.0531,-135.33,15.94,77,100,4.63,US,1691725884
123,kiunga,-6.1219,141.2906,27.98,64,97,2.22,PG,1691725885
124,colonia,50.9333,6.95,17.2,81,0,2.06,DE,1691725631
125,morrope,-6.5417,-80.0111,22.06,78,23,5.73,PE,1691725885
126,eksere,36.8134,31.9997,21.03,36,0,1.22,TR,1691725885
127,novo aripuana,-5.1206,-60.3797,26.22,67,46,1.17,BR,1691725885
128,namibe,-15.1961,12.1522,15.14,86,4,5.47,AO,1691725885
129,smirnykh,49.75,142.8333,13.09,97,100,1.68,RU,1691725885
130,maridi,4.9158,29.4742,18.24,97,39,1.33,SS,1691725885
131,portland,45.5234,-122.6762,23.33,59,0,1.79,US,1691725368
132,daytona beach,29.2108,-81.0228,29.45,79,40,2.57,US,1691725885
133,san luis de la loma,17.2706,-100.8939,27.14,85,42,1.97,MX,1691725885
134,prado,-17.3411,-39.2208,21.43,84,60,2.2,BR,1691725886
135,mount pearl,47.5166,-52.7813,17.14,95,100,1.54,CA,1691725886
136,palmer,42.1584,-72.3287,21.03,85,40,2.06,US,1691725886
137,tura,25.5198,90.2201,25.88,91,99,2.81,IN,1691725886
138,aykhal,66.0,111.5,19.53,68,100,3.31,RU,1691725886
139,crane,31.3974,-102.3501,34.25,26,47,6.09,US,1691725886
140,whitehorse,60.7161,-135.0538,17.43,76,75,1.03,CA,1691725886
141,serpa,37.9458,-7.5975,17.98,56,0,2.37,PT,1691725886
142,yuzhno-kurilsk,44.0306,145.8556,21.66,87,97,2.15,RU,1691725886
143,demidov,55.2706,31.515,14.57,73,100,1.79,RU,1691725887
144,north bend,43.4065,-124.2243,17.95,77,0,6.17,US,1691725887
145,lucas,41.6501,-83.6666,20.03,84,0,0.45,US,1691725887
146,sogne,58.0833,7.8167,10.39,84,4,0.45,NO,1691725887
147,lusambo,-4.9667,23.45,23.08,61,94,0.49,CD,1691725887
148,polyarnyy,69.1989,33.4478,16.82,79,10,4.78,RU,1691725888
149,iskateley,67.6803,53.1512,16.11,61,5,1.34,RU,1691725888
150,isiro,2.7739,27.616,18.08,99,91,0.65,CD,1691725888
151,ornskoldsvik,63.2909,18.7153,13.53,94,75,3.09,SE,1691725888
152,yaren,-0.5472,166.916,28.45,69,5,0.76,NR,1691725888
153,ust-nera,64.5667,143.2,24.02,33,64,0.68,RU,1691725889
154,pala,9.3642,14.9046,20.95,98,100,1.85,TD,1691725889
155,lihue,21.9789,-159.3672,29.58,66,0,6.17,US,1691725801
156,punta del este,-34.9667,-54.95,14.37,93,75,1.03,UY,1691725889
157,fort mcmurray,56.7268,-111.381,13.77,100,100,2.57,CA,1691725889
158,nishinoomote,30.7333,131.0,29.31,89,75,2.57,JP,1691725889
159,laguna,38.421,-121.4238,26.99,52,0,4.63,US,1691725889
160,flying fish cove,-10.4217,105.6791,25.82,78,40,5.66,CX,1691725889
161,nar'yan-mar,67.6713,53.087,16.17,61,5,1.35,RU,1691725889
162,bardstown,37.8092,-85.4669,23.77,94,0,0.0,US,1691725890
163,afaahiti,-17.75,-149.2833,24.93,71,100,8.8,PF,1691725890
164,al ghayzah,16.2079,52.176,26.55,84,100,3.41,YE,1691725890
165,dalandzadgad,43.5708,104.425,24.55,39,2,5.62,MN,1691725890
166,brooks,50.5834,-111.8851,13.99,88,84,1.03,CA,1691725890
167,umea,63.8284,20.2597,14.96,82,40,4.12,SE,1691725890
168,sona,45.4388,10.8255,21.85,73,75,1.03,IT,1691725890
169,tolanaro,-25.0319,46.9987,17.04,82,75,1.03,MG,1691725890
170,hermanus,-34.4187,19.2345,15.17,55,0,0.82,ZA,1691725890
171,paradip garh,20.3167,86.6167,32.18,57,100,3.75,IN,1691725891
172,happy valley-goose bay,53.3168,-60.3315,13.17,71,75,2.06,CA,1691725891
173,kyzyl,51.7,94.45,23.6,43,36,2.47,RU,1691725761
174,hithadhoo,-0.6,73.0833,27.93,75,95,4.57,MV,1691725891
175,farasan,16.7022,42.1183,30.41,82,13,4.13,SA,1691725891
176,hamilton,39.1834,-84.5333,22.13,88,0,2.57,US,1691725532
177,rongelap,11.1635,166.8941,28.38,71,100,6.66,MH,1691725891
178,senanga,-16.1167,23.2667,10.88,56,0,2.75,ZM,1691725891
179,rome,34.257,-85.1647,24.98,88,100,0.0,US,1691725891
180,rio branco,-9.9747,-67.81,25.34,88,0,1.03,BR,1691725891
181,ribeira brava,32.65,-17.0667,27.35,55,0,2.77,PT,1691725891
182,shingu,33.7333,135.9833,29.51,71,13,4.79,JP,1691725892
183,pasuquin,18.3328,120.6177,30.97,70,40,6.17,PH,1691725892
184,chinchilla,-26.75,150.6333,24.24,24,0,4.47,AU,1691725819
185,ambovombe,-25.1667,46.0833,16.39,65,57,4.55,MG,1691725892
186,jayapura,-2.5333,140.7,34.66,73,95,3.35,ID,1691725847
187,kerikeri,-35.2268,173.9474,13.27,49,5,2.84,NZ,1691725892
188,vamospercs,47.5333,21.9,13.84,85,70,2.14,HU,1691725892
189,anadyr,64.75,177.4833,9.28,87,100,2.68,RU,1691725892
190,port lincoln,-34.7333,135.8667,14.27,58,99,1.25,AU,1691725892
191,lerwick,60.1545,-1.1494,14.0,90,6,7.61,GB,1691725892
192,maksatikha,57.797,35.8825,15.42,75,73,1.08,RU,1691725892
193,zhanaozen,43.3,52.8,30.04,25,3,5.04,KZ,1691725893
194,remire-montjoly,4.9167,-52.2667,23.02,100,20,0.0,GF,1691725893
195,daru,-9.0763,143.2092,25.43,71,95,7.33,PG,1691725893
196,nemuro,43.3236,145.575,21.3,91,90,6.4,JP,1691725893
197,dellys,36.9172,3.9131,25.92,63,2,1.2,DZ,1691725893
198,umm kaddadah,13.6017,26.6876,25.95,66,100,2.88,SD,1691725893
199,aksu,41.1231,80.2644,29.92,28,99,3.7,CN,1691725893
200,ketchikan,55.3422,-131.6461,15.26,94,100,4.12,US,1691725893
201,tejen,37.3834,60.5054,33.99,20,0,2.42,TM,1691725894
202,bandon,51.7469,-8.7425,15.77,90,86,7.33,IE,1691725894
203,thoen,17.6129,99.2161,31.2,59,100,1.83,TH,1691725894
204,hammerfest,70.6634,23.6821,17.25,72,7,0.0,NO,1691725894
205,roma,43.2128,-75.4557,18.31,96,0,1.54,US,1691725864
206,camocim,-2.9022,-40.8411,23.33,92,26,4.51,BR,1691725894
207,kodiak,57.79,-152.4072,12.73,94,100,3.6,US,1691725743
208,yotoco,3.8605,-76.3836,24.08,94,73,0.25,CO,1691725894
209,bardai,11.65,7.2333,20.81,94,100,3.16,NG,1691725894
210,smithers,54.7804,-127.1743,18.18,52,75,0.0,CA,1691725894
211,egilsstadir,65.2653,-14.3948,6.95,93,75,2.57,IS,1691725895
212,badger,64.8,-147.5333,19.93,88,100,2.06,US,1691725895
213,mahibadhoo,3.7833,72.9667,28.19,75,98,5.79,MV,1691725895
214,carnarvon,-24.8667,113.6333,22.03,62,5,2.82,AU,1691725895
215,noosa heads,-26.3833,153.15,26.3,51,1,5.21,AU,1691725895
216,rio verde de mato grosso,-18.9181,-54.8442,25.29,29,0,2.13,BR,1691725895
217,port douglas,-16.4833,145.4667,22.61,67,93,6.8,AU,1691725895
218,kushikino,31.7167,130.2667,31.71,72,28,2.72,JP,1691725895
219,preston,53.7667,-2.7167,19.4,91,93,5.1,GB,1691725895
220,mount gambier,-37.8333,140.7667,12.56,80,100,4.34,AU,1691725895
221,naze,28.3667,129.4833,26.51,79,100,0.62,JP,1691725895
222,kolonia town,6.964,158.206,32.06,74,75,4.12,FM,1691725896
223,geraldton,-28.7667,114.6,17.23,82,100,4.63,AU,1691725651
224,praia da vitoria,38.7333,-27.0667,23.14,88,40,3.7,PT,1691725896
225,usogorsk,63.4106,48.6872,20.18,57,0,2.2,RU,1691725896
226,trairi,-3.2778,-39.2689,24.0,90,29,3.79,BR,1691725896
227,burang,30.25,81.1667,13.67,68,100,1.61,CN,1691725896
228,selfoss,63.9331,-20.9971,13.36,82,80,5.03,IS,1691725896
229,quesnel,52.9999,-122.5029,19.28,68,100,0.0,CA,1691725896
230,waddan,29.1614,16.139,22.78,73,0,2.43,LY,1691725896
231,ostersund,63.1792,14.6357,10.34,100,100,1.79,SE,1691725896
232,vadso,70.0744,29.7487,16.09,82,20,5.14,NO,1691725896
233,celestun,20.8667,-90.4,29.22,75,37,7.23,MX,1691725896
234,tafuna,-14.3358,-170.72,29.97,84,40,5.66,AS,1691725897
235,glace bay,46.1969,-59.957,17.1,91,40,5.36,CA,1691725897
236,west bay,19.3667,-81.4167,31.04,81,20,3.6,KY,1691725897
237,rio grande,-32.035,-52.0986,16.64,99,77,3.64,BR,1691725897
238,olonkinbyen,70.9221,-8.7187,6.36,98,98,1.82,SJ,1691725897
239,tommot,58.9564,126.2925,19.09,83,100,2.17,RU,1691725897
240,prince rupert,54.3161,-130.3201,14.05,100,100,4.63,CA,1691725789
241,ugoofaaru,5.6667,73.0,28.35,75,95,6.65,MV,1691725897
242,nikolayevsk-on-amure,53.1406,140.73,23.51,52,0,2.78,RU,1691725897
243,mermoz boabab,14.7065,-17.4758,27.88,78,75,2.06,SN,1691725897
244,puerto armuelles,8.2833,-82.8667,27.27,91,100,1.34,PA,1691725897
245,nova sintra,14.8667,-24.7167,22.34,75,38,4.71,CV,1691725898
246,escarcega,18.6089,-90.7454,26.17,84,60,1.01,MX,1691725898
247,coracora,-15.0333,-73.7833,9.89,45,0,1.09,PE,1691725898
248,quelimane,-17.8786,36.8883,18.97,88,75,0.51,MZ,1691725898
249,floro,61.5996,5.0328,9.04,93,75,3.09,NO,1691725898
250,atar,20.5169,-13.0499,34.9,26,33,5.4,MR,1691725899
251,eggesin,53.6833,14.0833,12.77,95,17,2.95,DE,1691725899
252,briare,47.6334,2.7438,18.12,80,4,3.2,FR,1691725899
253,igarka,67.4667,86.5833,9.51,89,100,7.12,RU,1691725899
254,galax,36.6612,-80.924,18.76,90,0,0.89,US,1691725899
255,carutapera,-1.195,-46.02,23.7,93,11,1.5,BR,1691725899
256,san lawrenz,36.0553,14.204,21.67,60,0,0.44,MT,1691725900
257,revda,56.801,59.9303,16.71,59,71,3.55,RU,1691725900
258,wynyard,-41.0,145.7167,12.88,74,100,4.91,AU,1691725900
259,ulanhot,46.0833,122.0833,23.55,74,99,5.56,CN,1691725901
260,cooma,-36.2333,149.1333,15.04,31,58,3.96,AU,1691725901
261,kudligi,14.9,76.3833,26.35,64,81,5.73,IN,1691725901
262,aktau,43.65,51.2,28.32,35,3,5.32,KZ,1691725901
263,acarau,-2.8856,-40.12,24.77,88,15,5.49,BR,1691725790
264,mount isa,-20.7333,139.5,26.87,24,4,3.09,AU,1691725901
265,manokwari,-0.8667,134.0833,28.08,73,48,2.95,ID,1691725901
266,gadzhiyevo,69.2551,33.3362,16.85,79,10,5.24,RU,1691725902
267,lib,8.3122,167.3766,28.14,71,10,4.63,MH,1691725902
268,chitungwiza,-18.0127,31.0756,11.36,92,42,2.72,ZW,1691725902
269,kasongo-lunda,-6.4667,16.8167,21.68,63,3,0.57,CD,1691725902
270,kolonia,50.9333,6.95,17.2,81,0,2.06,DE,1691725631
271,wailua homesteads,22.0669,-159.378,29.24,73,0,6.17,US,1691725902
272,mohr,54.3528,9.7167,12.76,87,11,1.54,DE,1691725902
273,ruteng,-8.6136,120.4721,22.9,50,60,0.48,ID,1691725902
274,fort bragg,35.139,-79.006,26.57,84,100,1.54,US,1691725903
275,mokhsogollokh,61.4681,128.9203,26.0,48,2,2.62,RU,1691725903
276,udachny,66.4167,112.4,22.04,54,100,3.71,RU,1691725903
277,kayangel,8.0823,134.7173,27.8,82,98,8.74,PW,1691725903
278,avarua,-21.2078,-159.775,24.03,88,100,6.69,CK,1691725903
279,isla mujeres,21.2311,-86.731,30.09,80,0,4.68,MX,1691725845
280,jesi,43.5288,13.2402,20.74,85,75,1.54,IT,1691725903
281,champerico,14.3,-91.9167,28.3,80,91,3.29,GT,1691725903
282,pisco,-13.7,-76.2167,20.03,73,100,4.12,PE,1691725903
283,sen monorom,12.45,107.2,28.17,63,35,2.61,KH,1691725904
284,murudeshwara,14.0943,74.4845,27.59,76,61,1.71,IN,1691725904
285,tvoroyri,61.5556,-6.8111,11.67,94,48,9.02,FO,1691725904
286,montpon-menesterol,45.0,0.1667,18.14,98,55,0.82,FR,1691725904
287,holualoa,19.6228,-155.9522,25.91,82,100,3.6,US,1691725904
288,nakamura,32.9833,132.9333,30.0,71,45,3.32,JP,1691725904
289,hastings,50.8552,0.5729,19.05,41,100,4.63,GB,1691725880
290,el granada,37.5027,-122.4694,21.4,88,100,5.66,US,1691725905
291,enewetak,11.3474,162.3373,28.76,76,36,5.57,MH,1691725905
292,barcelona,41.3888,2.159,25.86,65,0,3.09,ES,1691725755
293,zahedan,29.4963,60.8629,27.95,21,0,2.06,IR,1691725905
294,lebu,-37.6167,-73.65,8.9,75,100,3.43,CL,1691725906
295,phan rang-thap cham,11.5667,108.9833,36.2,43,4,4.6,VN,1691725635
296,mrkonjic grad,44.4158,17.0861,10.62,95,0,1.03,BA,1691725906
297,callao,-12.0667,-77.15,20.4,77,100,5.14,PE,1691725907
298,sao fidelis,-21.6461,-41.7469,19.74,96,3,0.29,BR,1691725724
299,port saint john's,-31.6229,29.5448,16.08,79,0,2.94,ZA,1691725907
300,eslov,55.8393,13.3039,12.57,95,43,2.0,SE,1691725907
301,port alfred,-33.5906,26.891,18.45,48,0,3.95,ZA,1691725907
302,woolgoolga,-30.1106,153.2007,18.93,57,0,4.7,AU,1691725908
303,mahina,-17.5065,-149.489,25.87,61,75,2.06,PF,1691725908
304,aur,8.1499,171.1687,28.14,78,84,5.21,MH,1691725908
305,trebisacce,39.8708,16.5312,18.53,56,57,1.98,IT,1691725908
306,valparaiso,-33.0393,-71.6273,12.8,76,0,2.57,CL,1691725908
307,rio preto da eva,-2.6994,-59.6997,24.27,76,14,1.02,BR,1691725908
308,sisimiut,66.9395,-53.6735,7.91,85,100,3.01,GL,1691725908
309,novospasskoye,53.1468,47.7514,25.15,35,6,1.79,RU,1691725908
310,fyodorovka,53.6314,62.7078,16.41,62,24,5.44,KZ,1691725908
311,zhangjiakou,40.81,114.8794,23.94,83,97,2.25,CN,1691725908
312,cabo san lucas,22.8909,-109.9124,30.61,78,0,2.06,MX,1691725228
313,talcahuano,-36.7167,-73.1167,7.82,93,20,2.57,CL,1691725849
314,khovd,48.0056,91.6419,25.15,26,0,0.36,MN,1691725909
315,lospalos,-8.5186,127.0025,25.86,58,80,5.86,TL,1691725909
316,peace river,56.2501,-117.286,15.17,94,100,3.09,CA,1691725616
317,dudinka,69.4058,86.1778,7.57,38,95,12.72,RU,1691725670
318,marat,25.0701,45.4615,33.08,14,43,1.68,SA,1691725909
319,eyl,7.9803,49.8164,25.47,68,99,10.25,SO,1691725909
320,raduzhny,62.0961,77.475,12.76,80,93,7.44,RU,1691725909
321,raduzhnyy,62.0961,77.475,12.76,80,93,7.44,RU,1691725909
322,san pedro pochutla,15.7333,-96.4667,27.62,86,65,1.29,MX,1691725909
323,yabelo,4.8833,38.0833,14.55,71,78,3.93,ET,1691725909
324,evreux,49.0241,1.1508,18.92,88,0,1.54,FR,1691725848
325,ulysses,37.5814,-101.3552,27.02,50,0,6.17,US,1691725909
326,tukrah,32.5341,20.5791,24.95,67,0,5.46,LY,1691725909
327,keflavik,64.0049,-22.5624,14.95,82,75,3.09,IS,1691725910
328,palikir - national government center,6.9248,158.1611,31.47,74,75,4.12,FM,1691725910
329,muravlenko,63.7898,74.523,11.65,59,4,10.62,RU,1691725910
330,karratha,-20.7377,116.8463,27.56,33,4,3.06,AU,1691725910
331,marianna,30.7744,-85.2269,29.02,70,0,4.63,US,1691725900
332,lautoka,-17.6167,177.4667,21.92,83,100,3.6,FJ,1691725910
333,khurai,24.0436,78.3319,27.51,71,38,5.53,IN,1691725910
334,ataq,14.5377,46.8319,25.79,52,97,5.8,YE,1691725910
335,cambria,35.5641,-121.0808,21.24,93,64,2.21,US,1691725910
336,yung shue wan,22.2333,114.1167,28.52,92,100,5.02,HK,1691725910
337,gulf shores,30.246,-87.7008,30.14,75,0,4.63,US,1691725910
338,fale old settlement,-9.3852,-171.2468,28.48,75,62,5.73,TK,1691725910
339,nayoro,44.3506,142.4578,26.99,80,100,0.89,JP,1691725911
340,mawu,29.5923,107.3139,33.35,55,29,0.66,CN,1691725911
341,lorengau,-2.0226,147.2712,27.44,79,91,7.66,PG,1691725911
342,picota,-6.9197,-76.3304,23.67,79,1,0.52,PE,1691725911
343,kununurra,-15.7667,128.7333,30.99,23,84,5.66,AU,1691725911
344,clinton,42.587,-82.9199,22.18,61,20,4.12,US,1691725911
345,brumunddal,60.881,10.9395,10.74,87,90,0.86,NO,1691725911
346,papao,-17.75,-149.55,25.82,69,100,9.79,PF,1691725911
347,yuzhnoural'sk,54.4418,61.2536,16.34,70,25,4.91,RU,1691725911
348,buochs,46.974,8.4228,18.04,90,0,1.54,CH,1691725911
349,krasnyy yar,46.5331,48.3456,24.96,29,0,5.99,RU,1691725911
350,necochea,-38.5473,-58.7368,10.03,91,95,4.86,AR,1691725911
351,recreo,-29.2818,-65.061,15.41,52,8,1.26,AR,1691725912
352,novosokol'niki,56.3463,30.1578,14.94,77,100,1.65,RU,1691725912
353,edmundston,47.3737,-68.3251,17.63,93,75,3.09,CA,1691725618
354,san juan,-31.5375,-68.5364,14.85,36,42,3.48,AR,1691725912
355,sinabang,2.4803,96.3801,28.31,73,92,1.26,ID,1691725912
356,al jawf,29.5,38.75,26.4,44,0,5.32,SA,1691725912
357,winnemucca,40.973,-117.7357,27.03,12,0,3.09,US,1691725912
358,fuqing,25.725,119.3794,30.87,86,99,1.41,CN,1691725912
359,dakhla,23.6848,-15.958,22.53,76,61,5.71,EH,1691725912
360,bukama,-9.2,25.85,19.48,38,0,1.61,CD,1691725912
361,santo antonio,-6.3106,-35.4789,20.33,91,5,3.98,BR,1691725912
362,adrar,20.5022,-10.0711,32.77,25,80,2.69,MR,1691725912
363,hawaiian paradise park,19.5933,-154.9731,27.73,90,75,4.12,US,1691725913
364,beloyarskiy,63.7119,66.6722,14.28,54,0,5.05,RU,1691725913
365,tezu,27.9167,96.1667,26.14,98,100,0.21,IN,1691725913
366,bridgetown,13.1,-59.6167,28.27,83,40,8.23,BB,1691725329
367,salalah,17.0151,54.0924,26.05,100,100,3.6,OM,1691725913
368,la punta,-33.1837,-66.3127,11.98,48,12,4.37,AR,1691725913
369,hanting,36.7708,119.2108,35.38,36,100,1.68,CN,1691725914
370,fisterra,42.9049,-9.2629,19.3,93,9,3.49,ES,1691725914
371,lake park,26.8003,-80.0664,27.79,89,40,0.0,US,1691725914
372,tirana,41.3275,19.8189,15.49,94,0,2.06,AL,1691725914
373,vernon,50.2581,-119.2691,22.74,54,81,0.45,CA,1691725833
374,khark,29.2614,50.3306,35.01,66,40,3.09,IR,1691725915
375,fada,9.5667,8.3,19.77,95,100,0.38,NG,1691725915
376,saipan,15.1355,145.701,28.39,100,75,6.69,MP,1691725915
377,zaozersk,69.4005,32.4476,16.75,80,5,5.88,RU,1691725915
378,la'ie,21.6477,-157.9253,29.98,65,28,6.53,US,1691725915
379,wajir,1.7471,40.0573,22.98,73,75,3.6,KE,1691725915
380,menomonie,44.8755,-91.9193,22.01,77,40,0.0,US,1691725915
381,westport,41.1415,-73.3579,21.37,89,75,0.89,US,1691725904
382,inhambane,-23.865,35.3833,19.14,61,83,3.36,MZ,1691725915
383,gourdon,44.75,1.5,13.78,97,62,0.77,FR,1691725915
384,glarus,47.0406,9.068,17.49,71,56,0.64,CH,1691725915
385,zavitinsk,50.1167,129.45,27.05,48,18,3.84,RU,1691725915
386,taltal,-25.4,-70.4833,17.67,61,99,2.86,CL,1691725916
387,nabire,-3.3667,135.4833,29.54,68,62,1.51,ID,1691725916
388,karasburg,-28.0167,18.75,14.59,30,34,5.64,NA,1691725916
389,soroti,1.7146,33.6111,17.57,92,11,0.71,UG,1691725916
390,plattsburgh,44.6995,-73.4529,17.98,96,0,0.0,US,1691725647
391,kelso,46.1468,-122.9084,21.92,70,75,4.12,US,1691725916
392,touros,-5.1989,-35.4608,23.2,86,12,5.7,BR,1691725916
393,vilyuchinsk,52.9306,158.4028,20.15,75,76,3.55,RU,1691725916
394,vanimo,-2.6741,141.3028,28.36,80,98,3.95,PG,1691725916
395,newcastle,-32.9272,151.7765,19.99,56,0,5.14,AU,1691725646
396,arraial do cabo,-22.9661,-42.0278,21.07,91,10,10.67,BR,1691725916
397,calvinia,-31.4707,19.776,12.46,39,2,4.68,ZA,1691725916
398,moncks corner,33.196,-80.0131,28.91,83,40,0.45,US,1691725917
399,ust'-barguzin,53.45,108.9833,16.09,79,89,1.91,RU,1691725917
400,kirakira,-10.4544,161.9205,25.18,82,100,5.69,SB,1691725917
401,brookings,44.3114,-96.7984,23.0,83,0,6.69,US,1691725840
402,tutoia,-2.7619,-42.2744,25.92,82,48,4.99,BR,1691725917
403,lemvig,56.5486,8.3102,13.41,81,4,4.33,DK,1691725917
404,san antonio de pale,-1.4014,5.6325,23.42,86,100,4.52,GQ,1691725917
405,bel ombre,-4.6167,55.4167,24.91,83,20,1.03,SC,1691725917
406,samastipur,25.85,85.7833,30.61,72,97,3.27,IN,1691725917
407,inongo,-1.95,18.2667,20.08,90,92,2.23,CD,1691725917
408,santa ana,33.7456,-117.8678,24.73,85,75,3.6,US,1691725835
409,taguatinga,-12.3857,-46.5711,23.63,38,25,3.21,BR,1691725917
410,garachico,28.7781,-17.7646,24.06,57,0,6.69,ES,1691725917
411,cururupu,-1.8283,-44.8683,23.35,93,5,1.44,BR,1691725918
412,ulubey,40.8721,37.7588,21.07,88,83,0.46,TR,1691725918
413,sassnitz,54.5167,13.65,9.89,84,21,4.5,DE,1691725918
414,una,20.8167,71.0333,26.75,82,100,5.33,IN,1691725918
415,yarmouth,41.7057,-70.2286,22.26,93,75,6.17,US,1691725626
416,alto araguaia,-17.3147,-53.2153,21.48,38,0,2.25,BR,1691725918
417,vilyuysk,63.7553,121.6247,25.77,39,92,4.92,RU,1691725918
418,haiku-pauwela,20.9219,-156.3051,27.01,68,40,7.72,US,1691725918
419,santa cruz,-17.8,-63.1667,24.7,83,0,5.66,BO,1691725918
420,wenchang,30.904,118.4887,33.77,54,3,0.71,CN,1691725919
421,orchard homes,46.8633,-114.0484,22.08,48,0,4.12,US,1691725919
422,hassi messaoud,31.6804,6.0729,27.92,30,0,2.57,DZ,1691725919
423,severnoye,56.3491,78.3619,12.33,93,98,3.5,RU,1691725919
424,pacho,5.1328,-74.1598,19.76,93,82,2.66,CO,1691725919
425,shambu,9.5667,37.1,10.3,90,100,0.54,ET,1691725919
426,nadi,-17.8,177.4167,22.0,83,100,3.6,FJ,1691725919
427,patamda,24.3,85.4167,29.26,68,100,5.37,IN,1691725919
428,willowmore,-33.2926,23.4895,11.42,43,0,1.89,ZA,1691725920
429,stony plain,53.5334,-114.0021,16.73,80,75,2.57,CA,1691725821
430,presidente medici,-11.1753,-61.9014,27.72,44,97,1.44,BR,1691725920
431,jinchang,38.4953,102.1739,26.33,33,72,2.55,CN,1691725920
432,oroqen zizhiqi,50.5667,123.7167,24.2,58,100,2.74,CN,1691725920
433,amahai,-3.3333,128.9167,26.5,78,87,4.63,ID,1691725920
434,margate,51.3813,1.3862,18.16,80,27,0.45,GB,1691725328
435,el fasher,13.6279,25.3494,28.02,56,100,1.24,SD,1691725920
436,noumea,-22.2763,166.4572,21.99,55,1,5.41,NC,1691725355
437,saint-joseph,-21.3667,55.6167,19.21,73,1,1.34,RE,1691725920
438,urzhar,47.093,81.6294,27.81,37,100,3.06,KZ,1691725920
439,saint-francois,46.4154,3.9054,15.69,94,0,0.51,FR,1691725920
440,vallenar,-28.5708,-70.7581,15.11,40,34,1.67,CL,1691725920
441,kempsey,-31.0833,152.8333,18.86,47,0,2.24,AU,1691725921
442,kailua-kona,19.6406,-155.9956,27.98,81,100,3.6,US,1691725921
443,homer,59.6425,-151.5483,13.36,94,100,1.54,US,1691725921
444,mbandaka,0.0487,18.2603,20.77,95,81,0.82,CD,1691725921
445,gaalkacyo,6.7697,47.4308,23.46,69,35,8.84,SO,1691725921
446,siwa oasis,29.2041,25.5195,26.28,53,0,3.4,EG,1691725921
447,labrador city,52.9463,-66.9114,13.95,82,100,2.57,CA,1691725921
448,ola,59.5833,151.2833,22.86,70,0,3.6,RU,1691725921
449,el hadjira,32.6134,5.5126,28.59,25,0,2.75,DZ,1691725921
450,yokadouma,3.5167,15.05,20.61,99,100,0.89,CM,1691725921
451,xining,36.6167,101.7667,16.07,92,100,0.03,CN,1691725922
452,fortuna,40.5982,-124.1573,17.19,94,0,3.6,US,1691725922
453,turochak,52.2576,87.1224,25.33,50,83,0.8,RU,1691725922
454,llanes,43.4198,-4.7549,21.2,80,10,1.56,ES,1691725922
455,talara,-4.5772,-81.2719,20.97,86,4,7.1,PE,1691725922
456,pontes e lacerda,-15.2261,-59.3353,24.53,39,0,1.62,BR,1691725922
457,karatau,43.1667,70.4667,27.76,31,0,4.81,KZ,1691725922
458,kurumkan,54.3,110.3,18.59,80,100,2.35,RU,1691725922
459,lewistown,40.5992,-77.5714,20.67,83,0,2.57,US,1691725922
460,atherton,53.5237,-2.4935,19.6,89,91,0.89,GB,1691725923
461,ilo,-17.6394,-71.3375,17.0,87,66,2.82,PE,1691725923
462,tarakan,3.3,117.6333,29.72,84,75,4.12,ID,1691725923
463,maysville,38.6412,-83.7444,22.88,88,0,0.0,US,1691725923
464,uliastay,47.7417,96.8444,21.93,33,0,0.86,MN,1691725923
465,vila franca do campo,37.7167,-25.4333,22.23,92,83,3.0,PT,1691725923
466,thabazimbi,-24.5917,27.4116,7.89,66,1,1.43,ZA,1691725924
467,micheweni,-4.9667,39.8333,23.25,83,91,4.84,TZ,1691725924
468,chiang khong,20.2613,100.4046,29.33,68,99,1.89,TH,1691725924
469,rudnichnyy,59.617,52.4703,19.39,68,17,1.31,RU,1691725924
470,itoman,26.1247,127.6694,31.21,81,75,3.09,JP,1691725924
471,camapua,-19.5314,-54.0439,23.75,29,0,0.63,BR,1691725924
472,catarman,12.4989,124.6377,32.09,60,76,5.31,PH,1691725924
473,wamba,8.9333,8.6,21.49,94,100,0.53,NG,1691725925
474,chimbarongo,-34.7,-71.05,8.49,93,100,1.08,CL,1691725925
475,barro alto,-11.7608,-41.9117,16.7,88,61,3.6,BR,1691725925
476,bandarbeyla,9.4942,50.8122,25.24,71,6,12.21,SO,1691725925
477,arendal,58.4615,8.7725,9.89,76,2,2.05,NO,1691725925
478,tobol'sk,58.2,68.2667,15.3,60,36,6.64,RU,1691725925
479,hanceville,34.0607,-86.7675,25.28,94,56,0.04,US,1691725925
480,haikou,20.0458,110.3417,32.07,70,0,1.0,CN,1691725925
481,minas,-34.3759,-55.2377,14.07,96,90,2.46,UY,1691725925
482,tangalle,6.024,80.7911,31.09,65,64,5.06,LK,1691725925
483,miura,35.14,139.6192,33.94,71,27,5.81,JP,1691725925
484,walvis bay,-22.9575,14.5053,13.53,94,75,3.6,NA,1691725925
485,mossel bay,-34.1831,22.146,24.96,47,0,2.94,ZA,1691725926
486,svay rieng,11.0879,105.7993,34.4,46,4,6.11,KH,1691725926
487,napili-honokowai,20.9708,-156.6705,27.64,84,20,5.95,US,1691725926
488,merizo village,13.2658,144.6691,28.31,94,100,8.8,GU,1691725926
489,al artawiyah,26.5053,45.3444,33.71,20,34,2.13,SA,1691725926
490,ad dawadimi,24.5077,44.3924,28.64,13,6,1.86,SA,1691725926
491,sur,22.5667,59.5289,31.34,56,97,2.11,OM,1691725926
492,san bartolo,19.1833,-100.05,13.32,90,98,2.13,MX,1691725926
493,suhbaatar,50.2314,106.2078,23.07,54,7,2.4,MN,1691725926
494,melfort,52.8667,-104.6177,13.07,88,99,3.09,CA,1691725926
495,shahrak,34.1074,64.3052,18.89,33,0,2.7,AF,1691725926
496,olinda,-8.0089,-34.8553,22.85,88,75,3.09,BR,1691725927
497,dunedin,-45.8742,170.5036,7.08,68,97,0.61,NZ,1691725655
498,coquimbo,-29.9533,-71.3436,12.85,94,0,1.54,CL,1691725927
499,konnern,51.6667,11.7667,14.57,72,0,1.52,DE,1691725927
500,archangelos,36.2149,28.1149,24.99,77,0,3.81,GR,1691725927
501,conceicao da barra,-18.5933,-39.7322,21.03,85,4,1.19,BR,1691725927
502,xuddur,4.1213,43.8894,21.29,77,26,7.23,SO,1691725927
503,baturaja,-4.1333,104.1667,30.9,54,18,1.78,ID,1691725927
504,mikuni,36.2171,136.1519,32.95,60,0,3.86,JP,1691725927
505,arkalyk,50.2486,66.9114,16.05,67,72,6.74,KZ,1691725928
506,greenville,35.6127,-77.3663,24.97,91,0,0.0,US,1691725578
507,alice springs,-23.7,133.8833,24.75,15,0,0.51,AU,1691725928
508,qalat,32.1058,66.9083,29.62,14,1,2.13,AF,1691725929
509,kapa'a,22.0752,-159.319,29.99,74,0,6.17,US,1691725929
510,mazagao,-0.115,-51.2894,26.03,89,18,1.89,BR,1691725929
511,dawson creek,55.7666,-120.2362,18.8,59,75,2.06,CA,1691725929
512,chiang rai,19.9167,99.9167,30.72,88,75,2.06,TH,1691725784
513,bonthe,7.5264,-12.505,24.93,82,100,5.12,SL,1691725930
514,kongolo,-5.3833,27.0,22.87,45,11,1.41,CD,1691725930
515,n'zeto,-7.2312,12.8666,19.58,92,0,3.62,AO,1691725930
516,yeniseysk,58.4497,92.1703,22.54,53,99,2.33,RU,1691725930
517,sohar,24.3643,56.7468,33.01,75,56,2.06,OM,1691725930
518,huron,41.1501,-82.5499,23.16,87,78,3.82,US,1691725930
519,galliano,29.4422,-90.2992,30.0,74,0,2.57,US,1691725930
520,tagta,41.6504,59.9164,23.97,50,0,4.12,TM,1691725931
521,al bardiyah,31.7561,25.0865,24.31,72,0,4.76,LY,1691725931
522,ahuacatlan,21.05,-104.4833,20.74,98,93,1.36,MX,1691725932
523,moura,38.1401,-7.4486,18.06,59,0,1.97,PT,1691725932
524,stornoway,58.2093,-6.3865,17.83,87,87,3.6,GB,1691725932
525,bayanhongor,46.7167,100.1167,18.41,44,1,2.08,MN,1691725932
526,mogocha,53.7333,119.7667,15.46,98,100,1.07,RU,1691725932
527,reggane,26.7158,0.1714,32.91,15,0,4.61,DZ,1691725932
528,paita,-5.0892,-81.1144,20.93,82,4,5.54,PE,1691725932
529,orsa,54.5153,30.4053,14.45,73,99,3.04,BY,1691725932
530,trincomalee,8.5711,81.2335,29.96,63,100,3.51,LK,1691725932
531,yinchuan,38.4681,106.2731,21.79,61,100,3.63,CN,1691725898
532,ocean city,39.2776,-74.5746,23.01,92,50,1.79,US,1691725933
533,bubaque,11.2833,-15.8333,26.5,83,91,5.1,GW,1691725933
534,launceston,-41.45,147.1667,12.8,76,100,8.23,AU,1691725933
535,tulagi,-9.0996,160.1476,26.36,79,100,9.63,SB,1691725933
536,tirmiz,37.2242,67.2783,29.05,30,0,4.12,UZ,1691725634
537,mbanza kongo,-6.267,14.2401,18.62,86,40,1.11,AO,1691725933
538,katsuren-haebaru,26.3369,127.8719,31.21,74,75,2.06,JP,1691725933
539,mundargi,15.2167,75.9,26.92,63,75,5.69,IN,1691725933
540,toliara,-23.35,43.6667,16.39,77,0,7.1,MG,1691725933
541,negombo,7.2083,79.8358,29.03,79,75,2.57,LK,1691725934
542,namsos,64.4662,11.4957,12.03,87,100,0.0,NO,1691725934
543,devrek,41.2192,31.9558,20.47,95,87,1.26,TR,1691725934
544,severo-yeniseyskiy,60.3725,93.0408,16.88,80,100,1.92,RU,1691725934
545,ladario,-19.0047,-57.6017,24.1,34,0,0.96,BR,1691725934
546,charnay-les-macon,46.3075,4.7848,19.04,93,11,1.3,FR,1691725934
547,slavyanka,42.8633,131.3847,20.35,96,100,8.99,RU,1691725934
548,moroto,2.5345,34.6666,18.29,73,10,1.33,UG,1691725934
549,nueva palestina,15.8,-92.75,21.73,95,100,0.91,MX,1691725934
550,kill devil hills,36.0307,-75.676,27.21,77,0,2.06,US,1691725934
551,mugia,43.1041,-9.2179,19.39,93,18,3.86,ES,1691725934
552,namanga,-2.5433,36.7905,14.7,79,31,2.2,KE,1691725935
553,port blair,11.6667,92.75,29.02,79,75,4.63,IN,1691725935
554,kudahuvadhoo,2.6708,72.8944,28.11,75,100,5.73,MV,1691725935
555,blenheim,-41.516,173.9528,9.73,62,32,1.34,NZ,1691725935
556,kupang,-10.1667,123.5833,32.32,43,20,9.26,ID,1691725935
557,chiroqchi,39.0336,66.5722,31.87,20,0,1.2,UZ,1691725868
558,beaver falls,40.752,-80.3192,21.63,88,8,2.46,US,1691725935
559,san juan bautista,-14.0108,-75.7358,17.29,79,1,1.0,PE,1691725935
560,newman,37.3138,-121.0208,28.99,61,75,3.75,US,1691725935
561,kargil,34.5667,76.1,17.68,45,36,1.47,IN,1691725935
562,san blas,21.5167,-105.2667,27.23,82,25,1.3,MX,1691725935
563,nileshwar,12.25,75.1,26.89,80,86,3.9,IN,1691725936
564,dauphin,51.1494,-100.0502,12.08,100,100,3.6,CA,1691725936
565,ceerigaabo,10.6162,47.368,17.51,66,60,7.96,SO,1691725936
566,guerrero negro,27.9769,-114.0611,21.83,84,0,6.26,MX,1691725732
567,puerto baquerizo moreno,-0.9,-89.6,23.73,83,66,6.24,EC,1691725936
568,manadhoo,5.7667,73.3833,27.97,77,95,6.69,MV,1691725936
569,bokovskaya,49.229,41.8306,25.37,41,66,7.13,RU,1691725936
570,okha,53.5739,142.9478,16.26,74,10,6.26,RU,1691725937
